[{"unique_id":1102354075,"facilityName":"사직동주민센터","address":"서울 종로구 경희궁1길 15","tel":"02-2148-5032","longitud":126.9705913,"latitude":37.57135448,"admin_id":"teamwemmy@gmail.com","category_main":"행정시설","category_sub":"주민센터","cityName":"서울시","borough":"종로구","operating_hours":"<운영시간>\n- 월~금 \/ 09:00 ~ 18:00\n- 토,일 및 공휴일 \/ 휴무"}
,{"unique_id":3195081660,"facilityName":"부암동주민센터","address":"서울 종로구 창의문로 145","tel":"02-2148-5092","longitud":126.964061,"latitude":37.5924143,"admin_id":"teamwemmy@gmail.com","category_main":"행정시설","category_sub":"주민센터","cityName":"서울시","borough":"종로구","operating_hours":"<운영시간>\n- 월~금 \/ 09:00 ~ 18:00\n- 토,일 및 공휴일 \/ 휴무"}
,{"unique_id":8770609987,"facilityName":"종로1,2,3,4가동 주민센터","address":"서울 종로구 삼일대로30길 47","tel":"02-2148-5243","longitud":126.9902873,"latitude":37.57443554,"admin_id":"teamwemmy@gmail.com","category_main":"행정시설","category_sub":"주민센터","cityName":"서울시","borough":"종로구","operating_hours":"<운영시간>\n- 월~금 \/ 09:00 ~ 18:00\n- 토,일 및 공휴일 \/ 휴무"}
,{"unique_id":4586337183,"facilityName":"평창동주민센터","address":"서울 종로구 평창문화로 65","tel":"02-2148-5123","longitud":126.9683578,"latitude":37.6063917,"admin_id":"teamwemmy@gmail.com","category_main":"행정시설","category_sub":"주민센터","cityName":"서울시","borough":"종로구","operating_hours":"<운영시간>\n- 월~금 \/ 09:00 ~ 18:00\n- 토,일 및 공휴일 \/ 휴무"}
,{"unique_id":3081142620,"facilityName":"혜화동주민센터","address":"서울 종로구 혜화로 12","tel":"02-2148-5333","longitud":127.0006069,"latitude":37.58686244,"admin_id":"teamwemmy@gmail.com","category_main":"행정시설","category_sub":"주민센터","cityName":"서울시","borough":"종로구","operating_hours":"<운영시간>\n- 월~금 \/ 09:00 ~ 18:00\n- 토,일 및 공휴일 \/ 휴무"}
,{"unique_id":4435781609,"facilityName":"이화동주민센터","address":"서울 종로구 이화장길 33","tel":"02-2148-5303","longitud":127.0043381,"latitude":37.57699468,"admin_id":"teamwemmy@gmail.com","category_main":"행정시설","category_sub":"주민센터","cityName":"서울시","borough":"종로구","operating_hours":"<운영시간>\n- 월~금 \/ 09:00 ~ 18:00\n- 토,일 및 공휴일 \/ 휴무"}
,{"unique_id":6040468416,"facilityName":"가회동주민센터","address":"서울 종로구 북촌로 35","tel":"02-2148-5213","longitud":126.9847845,"latitude":37.58009681,"admin_id":"teamwemmy@gmail.com","category_main":"행정시설","category_sub":"주민센터","cityName":"서울시","borough":"종로구","operating_hours":"<운영시간>\n- 월~금 \/ 09:00 ~ 18:00\n- 토,일 및 공휴일 \/ 휴무"}
,{"unique_id":8834477928,"facilityName":"삼청동주민센터","address":"서울 종로구 삼청로 107","tel":"02-2148-5062","longitud":126.9817583,"latitude":37.58499778,"admin_id":"teamwemmy@gmail.com","category_main":"행정시설","category_sub":"주민센터","cityName":"서울시","borough":"종로구","operating_hours":"<운영시간>\n- 월~금 \/ 09:00 ~ 18:00\n- 토,일 및 공휴일 \/ 휴무"}
,{"unique_id":8224624870,"facilityName":"숭인제2동주민센터","address":"서울 종로구 종로65길 10","tel":"02-2148-5513","longitud":127.019969,"latitude":37.57487754,"admin_id":"teamwemmy@gmail.com","category_main":"행정시설","category_sub":"주민센터","cityName":"서울시","borough":"종로구","operating_hours":"<운영시간>\n- 월~금 \/ 09:00 ~ 18:00\n- 토,일 및 공휴일 \/ 휴무"}
,{"unique_id":1516463776,"facilityName":"종로5.6가동 주민센터","address":"서울 종로구 종로35가길 19","tel":"02-2148-5273","longitud":127.0050713,"latitude":37.57203198,"admin_id":"teamwemmy@gmail.com","category_main":"행정시설","category_sub":"주민센터","cityName":"서울시","borough":"종로구","operating_hours":"<운영시간>\n- 월~금 \/ 09:00 ~ 18:00\n- 토,일 및 공휴일 \/ 휴무"}
,{"unique_id":9592650817,"facilityName":"청운효자동주민센터","address":"서울 종로구 자하문로 92","tel":"02-2148-5001","longitud":126.9706497,"latitude":37.58411617,"admin_id":"teamwemmy@gmail.com","category_main":"행정시설","category_sub":"주민센터","cityName":"서울시","borough":"종로구","operating_hours":"<운영시간>\n- 월~금 \/ 09:00 ~ 18:00\n- 토,일 및 공휴일 \/ 휴무"}
,{"unique_id":4064484722,"facilityName":"교남동주민센터","address":"서울 종로구 송월길 154","tel":"02-2148-5184","longitud":126.9619472,"latitude":37.57198631,"admin_id":"teamwemmy@gmail.com","category_main":"행정시설","category_sub":"주민센터","cityName":"서울시","borough":"종로구","operating_hours":"<운영시간>\n- 월~금 \/ 09:00 ~ 18:00\n- 토,일 및 공휴일 \/ 휴무"}
,{"unique_id":3301837646,"facilityName":"창신제1동주민센터","address":"서울 종로구 지봉로 8-6","tel":"02-2148-5393","longitud":127.0163682,"latitude":37.57073532,"admin_id":"teamwemmy@gmail.com","category_main":"행정시설","category_sub":"주민센터","cityName":"서울시","borough":"종로구","operating_hours":"<운영시간>\n- 월~금 \/ 09:00 ~ 18:00\n- 토,일 및 공휴일 \/ 휴무"}
,{"unique_id":2845516734,"facilityName":"창신제2동주민센터","address":"서울 종로구 창신길 62","tel":"02-2148-5423","longitud":127.0108719,"latitude":37.57448229,"admin_id":"teamwemmy@gmail.com","category_main":"행정시설","category_sub":"주민센터","cityName":"서울시","borough":"종로구","operating_hours":"<운영시간>\n- 월~금 \/ 09:00 ~ 18:00\n- 토,일 및 공휴일 \/ 휴무"}
,{"unique_id":6220692383,"facilityName":"무악동주민센터","address":"서울 종로구 통일로14길 36","tel":"02-2148-5153","longitud":126.9582457,"latitude":37.57598547,"admin_id":"teamwemmy@gmail.com","category_main":"행정시설","category_sub":"주민센터","cityName":"서울시","borough":"종로구","operating_hours":"<운영시간>\n- 월~금 \/ 09:00 ~ 18:00\n- 토,일 및 공휴일 \/ 휴무"}
,{"unique_id":1814794634,"facilityName":"숭인제1동주민센터","address":"서울 종로구 지봉로 86","tel":"02-2148-5482","longitud":127.0156407,"latitude":37.57780102,"admin_id":"teamwemmy@gmail.com","category_main":"행정시설","category_sub":"주민센터","cityName":"서울시","borough":"종로구","operating_hours":"<운영시간>\n- 월~금 \/ 09:00 ~ 18:00\n- 토,일 및 공휴일 \/ 휴무"}
,{"unique_id":7401212352,"facilityName":"창신제3동주민센터","address":"서울 종로구 지봉로 87","tel":"02-2148-5453","longitud":127.0150034,"latitude":37.57786057,"admin_id":"teamwemmy@gmail.com","category_main":"행정시설","category_sub":"주민센터","cityName":"서울시","borough":"종로구","operating_hours":"<운영시간>\n- 월~금 \/ 09:00 ~ 18:00\n- 토,일 및 공휴일 \/ 휴무"}
,{"unique_id":9956843848,"facilityName":"성북동주민센터","address":"서울 성북구 성북로 37","tel":"02-2241-5000","longitud":127.0032723,"latitude":37.59104481,"admin_id":"teamwemmy@gmail.com","category_main":"행정시설","category_sub":"주민센터","cityName":"서울시","borough":"성북구","operating_hours":"<운영시간>\n- 월~금 \/ 09:00 ~ 18:00\n- 토,일 및 공휴일 \/ 휴무"}
,{"unique_id":5644077195,"facilityName":"홍제3동주민센터","address":"서울 서대문구 세검정로4길 32","tel":"02-330-8125","longitud":126.9497434,"latitude":37.59378218,"admin_id":"teamwemmy@gmail.com","category_main":"행정시설","category_sub":"주민센터","cityName":"서울시","borough":"서대문구","operating_hours":"<운영시간>\n- 월~금 \/ 09:00 ~ 18:00\n- 토,일 및 공휴일 \/ 휴무"}
,{"unique_id":8338777893,"facilityName":"홍제2동주민센터","address":"서울 서대문구 통일로34길 27","tel":"02-330-8127","longitud":126.9493907,"latitude":37.58615062,"admin_id":"teamwemmy@gmail.com","category_main":"행정시설","category_sub":"주민센터","cityName":"서울시","borough":"서대문구","operating_hours":"<운영시간>\n- 월~금 \/ 09:00 ~ 18:00\n- 토,일 및 공휴일 \/ 휴무"}
,{"unique_id":6182785474,"facilityName":"홍은1동주민센터","address":"서울 서대문구 홍은중앙로 85","tel":"02-330-8129","longitud":126.9471083,"latitude":37.59891668,"admin_id":"teamwemmy@gmail.com","category_main":"행정시설","category_sub":"주민센터","cityName":"서울시","borough":"서대문구","operating_hours":"<운영시간>\n- 월~금 \/ 09:00 ~ 18:00\n- 토,일 및 공휴일 \/ 휴무"}
,{"unique_id":9202827130,"facilityName":"천연동주민센터","address":"서울 서대문구 성산로 694","tel":"02-330-8103","longitud":126.959077,"latitude":37.571124,"admin_id":"teamwemmy@gmail.com","category_main":"행정시설","category_sub":"주민센터","cityName":"서울시","borough":"서대문구","operating_hours":"<운영시간>\n- 월~금 \/ 09:00 ~ 18:00\n- 토,일 및 공휴일 \/ 휴무"}
,{"unique_id":3814101421,"facilityName":"소공동주민센터","address":"서울 중구 남대문로1길 31-5","tel":"02-3396-6500","longitud":126.9770644,"latitude":37.56242885,"admin_id":"teamwemmy@gmail.com","category_main":"행정시설","category_sub":"주민센터","cityName":"서울시","borough":"중구","operating_hours":"<운영시간>\n- 월~금 \/ 09:00 ~ 18:00\n- 토,일 및 공휴일 \/ 휴무"}
,{"unique_id":3102318315,"facilityName":"을지로동주민센터","address":"서울 중구 충무로9길 20","tel":"02-3396-6680","longitud":126.9911938,"latitude":37.56698798,"admin_id":"teamwemmy@gmail.com","category_main":"행정시설","category_sub":"주민센터","cityName":"서울시","borough":"중구","operating_hours":"<운영시간>\n- 월~금 \/ 09:00 ~ 18:00\n- 토,일 및 공휴일 \/ 휴무"}
,{"unique_id":5781709193,"facilityName":"홍제1동주민센터","address":"서울 서대문구 통일로 435-1","tel":"02-330-8121","longitud":126.9449514,"latitude":37.58771636,"admin_id":"teamwemmy@gmail.com","category_main":"행정시설","category_sub":"주민센터","cityName":"서울시","borough":"서대문구","operating_hours":"<운영시간>\n- 월~금 \/ 09:00 ~ 18:00\n- 토,일 및 공휴일 \/ 휴무"}
,{"unique_id":2389344740,"facilityName":"정릉2동주민센터","address":"서울 성북구 정릉로26길 1","tel":"02-2241-5320","longitud":127.0111402,"latitude":37.60446459,"admin_id":"teamwemmy@gmail.com","category_main":"행정시설","category_sub":"주민센터","cityName":"서울시","borough":"성북구","operating_hours":"<운영시간>\n- 월~금 \/ 09:00 ~ 18:00\n- 토,일 및 공휴일 \/ 휴무"}
,{"unique_id":5127131930,"facilityName":"삼선동주민센터","address":"서울 성북구 보문로 190","tel":"02-2241-5040","longitud":127.0146516,"latitude":37.59082771,"admin_id":"teamwemmy@gmail.com","category_main":"행정시설","category_sub":"주민센터","cityName":"서울시","borough":"성북구","operating_hours":"<운영시간>\n- 월~금 \/ 09:00 ~ 18:00\n- 토,일 및 공휴일 \/ 휴무"}
,{"unique_id":5364781452,"facilityName":"정릉3동주민센터","address":"서울 성북구 솔샘로1길 6-3","tel":"02-2241-5360","longitud":127.0041904,"latitude":37.60892945,"admin_id":"teamwemmy@gmail.com","category_main":"행정시설","category_sub":"주민센터","cityName":"서울시","borough":"성북구","operating_hours":"<운영시간>\n- 월~금 \/ 09:00 ~ 18:00\n- 토,일 및 공휴일 \/ 휴무"}
,{"unique_id":3747788786,"facilityName":"돈암2동주민센터","address":"서울 성북구 흥천사길 7","tel":"02-2241-5160","longitud":127.0105809,"latitude":37.59801625,"admin_id":"teamwemmy@gmail.com","category_main":"행정시설","category_sub":"주민센터","cityName":"서울시","borough":"성북구","operating_hours":"<운영시간>\n- 월~금 \/ 09:00 ~ 18:00\n- 토,일 및 공휴일 \/ 휴무"}
,{"unique_id":2213751296,"facilityName":"정릉4동주민센터","address":"서울 성북구 보국문로 106-1","tel":"02-2241-5400","longitud":127.0069995,"latitude":37.6133766,"admin_id":"teamwemmy@gmail.com","category_main":"행정시설","category_sub":"주민센터","cityName":"서울시","borough":"성북구","operating_hours":"<운영시간>\n- 월~금 \/ 09:00 ~ 18:00\n- 토,일 및 공휴일 \/ 휴무"}
,{"unique_id":1738356862,"facilityName":"충현동주민센터","address":"서울 서대문구 북아현로22길 38","tel":"02-330-8101","longitud":126.9547137,"latitude":37.56481724,"admin_id":"teamwemmy@gmail.com","category_main":"행정시설","category_sub":"주민센터","cityName":"서울시","borough":"서대문구","operating_hours":"<운영시간>\n- 월~금 \/ 09:00 ~ 18:00\n- 토,일 및 공휴일 \/ 휴무"}
,{"unique_id":9340250763,"facilityName":"명동주민센터","address":"서울 중구 퇴계로20나길 16","tel":"02-3396-6560","longitud":126.9852416,"latitude":37.55835584,"admin_id":"teamwemmy@gmail.com","category_main":"행정시설","category_sub":"주민센터","cityName":"서울시","borough":"중구","operating_hours":"<운영시간>\n- 월~금 \/ 09:00 ~ 18:00\n- 토,일 및 공휴일 \/ 휴무"}
,{"unique_id":9728776296,"facilityName":"홍은2동주민센터","address":"서울 서대문구 모래내로 334","tel":"02-330-8133","longitud":126.9342291,"latitude":37.58015154,"admin_id":"teamwemmy@gmail.com","category_main":"행정시설","category_sub":"주민센터","cityName":"서울시","borough":"서대문구","operating_hours":"<운영시간>\n- 월~금 \/ 09:00 ~ 18:00\n- 토,일 및 공휴일 \/ 휴무"}
,{"unique_id":8897477507,"facilityName":"회현동주민센터","address":"서울 중구 퇴계로8길 46","tel":"02-3396-6530","longitud":126.9793714,"latitude":37.55727377,"admin_id":"teamwemmy@gmail.com","category_main":"행정시설","category_sub":"주민센터","cityName":"서울시","borough":"중구","operating_hours":"<운영시간>\n- 월~금 \/ 09:00 ~ 18:00\n- 토,일 및 공휴일 \/ 휴무"}
,{"unique_id":2735330417,"facilityName":"정릉1동주민센터","address":"서울 성북구 정릉로38마길 33","tel":"02-2241-5280","longitud":127.0166558,"latitude":37.60144652,"admin_id":"teamwemmy@gmail.com","category_main":"행정시설","category_sub":"주민센터","cityName":"서울시","borough":"성북구","operating_hours":"<운영시간>\n- 월~금 \/ 09:00 ~ 18:00\n- 토,일 및 공휴일 \/ 휴무"}
,{"unique_id":3938772872,"facilityName":"동선동주민센터","address":"서울 성북구 동소문로26길 27","tel":"02-2241-5080","longitud":127.0204157,"latitude":37.59398933,"admin_id":"teamwemmy@gmail.com","category_main":"행정시설","category_sub":"주민센터","cityName":"서울시","borough":"성북구","operating_hours":"<운영시간>\n- 월~금 \/ 09:00 ~ 18:00\n- 토,일 및 공휴일 \/ 휴무"}
,{"unique_id":2177858175,"facilityName":"필동주민센터","address":"서울 중구 퇴계로36길 42","tel":"02-3396-6590","longitud":126.9955995,"latitude":37.56016408,"admin_id":"teamwemmy@gmail.com","category_main":"행정시설","category_sub":"주민센터","cityName":"서울시","borough":"중구","operating_hours":"<운영시간>\n- 월~금 \/ 09:00 ~ 18:00\n- 토,일 및 공휴일 \/ 휴무"}
,{"unique_id":3339592113,"facilityName":"광희동주민센터","address":"서울 중구 퇴계로 303-9","tel":"02-3396-6650","longitud":127.0050527,"latitude":37.56443118,"admin_id":"teamwemmy@gmail.com","category_main":"행정시설","category_sub":"주민센터","cityName":"서울시","borough":"중구","operating_hours":"<운영시간>\n- 월~금 \/ 09:00 ~ 18:00\n- 토,일 및 공휴일 \/ 휴무"}
,{"unique_id":1835430330,"facilityName":"연희동주민센터","address":"서울 서대문구 연희로 189","tel":"02-330-8115","longitud":126.9352308,"latitude":37.57391001,"admin_id":"teamwemmy@gmail.com","category_main":"행정시설","category_sub":"주민센터","cityName":"서울시","borough":"서대문구","operating_hours":"<운영시간>\n- 월~금 \/ 09:00 ~ 18:00\n- 토,일 및 공휴일 \/ 휴무"}
,{"unique_id":2189013816,"facilityName":"북아현동주민센터","address":"서울 서대문구 북아현로 24","tel":"02-330-8105","longitud":126.9569012,"latitude":37.55956524,"admin_id":"teamwemmy@gmail.com","category_main":"행정시설","category_sub":"주민센터","cityName":"서울시","borough":"서대문구","operating_hours":"<운영시간>\n- 월~금 \/ 09:00 ~ 18:00\n- 토,일 및 공휴일 \/ 휴무"}
,{"unique_id":4299475891,"facilityName":"안암동주민센터","address":"서울 성북구 고려대로 16","tel":"02-2241-5200","longitud":127.0213418,"latitude":37.58581717,"admin_id":"teamwemmy@gmail.com","category_main":"행정시설","category_sub":"주민센터","cityName":"서울시","borough":"성북구","operating_hours":"<운영시간>\n- 월~금 \/ 09:00 ~ 18:00\n- 토,일 및 공휴일 \/ 휴무"}
,{"unique_id":2921116024,"facilityName":"중림동주민센터","address":"서울 중구 만리재로 175","tel":"02-3396-6920","longitud":126.9644367,"latitude":37.55478887,"admin_id":"teamwemmy@gmail.com","category_main":"행정시설","category_sub":"주민센터","cityName":"서울시","borough":"중구","operating_hours":"<운영시간>\n- 월~금 \/ 09:00 ~ 18:00\n- 토,일 및 공휴일 \/ 휴무"}
,{"unique_id":4348160793,"facilityName":"보문동주민센터","address":"서울 성북구 안암로3길 35","tel":"02-2241-5243","longitud":127.0228234,"latitude":37.5803803,"admin_id":"teamwemmy@gmail.com","category_main":"행정시설","category_sub":"주민센터","cityName":"서울시","borough":"성북구","operating_hours":"<운영시간>\n- 월~금 \/ 09:00 ~ 18:00\n- 토,일 및 공휴일 \/ 휴무"}
,{"unique_id":6978694251,"facilityName":"종로구청","address":"서울 종로구 종로1길 36","tel":"02-2148-1114","longitud":126.97899,"latitude":37.57350424,"admin_id":"teamwemmy@gmail.com","category_main":"행정시설","category_sub":"구청","cityName":"서울시","borough":"종로구","operating_hours":"<운영시간>\n- 월~금 \/ 09:00 ~ 18:00\n- 토,일 및 공휴일 \/ 휴무"}
,{"unique_id":9321362329,"facilityName":"종로구 통합청사 (2027년말예정)","address":"서울 종로구 삼봉로 43","tel":"02-2148-1114","longitud":126.9796071,"latitude":37.57260876,"admin_id":"teamwemmy@gmail.com","category_main":"행정시설","category_sub":"구청","cityName":"서울시","borough":"종로구","operating_hours":"<운영시간>\n- 월~금 \/ 09:00 ~ 18:00\n- 토,일 및 공휴일 \/ 휴무"}
,{"unique_id":5171922394,"facilityName":"성북구청","address":"서울 성북구 보문로 168","tel":"02-2241-3114","longitud":127.0167006,"latitude":37.58935882,"admin_id":"teamwemmy@gmail.com","category_main":"행정시설","category_sub":"구청","cityName":"서울시","borough":"성북구","operating_hours":"<운영시간>\n- 월~금 \/ 09:00 ~ 18:00\n- 토,일 및 공휴일 \/ 휴무"}
,{"unique_id":2351883189,"facilityName":"서울특별시중구청","address":"서울 중구 창경궁로 17","tel":"02-3396-4114","longitud":126.9975552,"latitude":37.56380777,"admin_id":"teamwemmy@gmail.com","category_main":"행정시설","category_sub":"구청","cityName":"서울시","borough":"중구","operating_hours":"<운영시간>\n- 월~금 \/ 09:00 ~ 18:00\n- 토,일 및 공휴일 \/ 휴무"}
,{"unique_id":8612025308,"facilityName":"서대문구청","address":"서울 서대문구 연희로 248","tel":"02-330-1301","longitud":126.9368157,"latitude":37.57916186,"admin_id":"teamwemmy@gmail.com","category_main":"행정시설","category_sub":"구청","cityName":"서울시","borough":"서대문구","operating_hours":"<운영시간>\n- 월~금 \/ 09:00 ~ 18:00\n- 토,일 및 공휴일 \/ 휴무"}
,{"unique_id":1628725860,"facilityName":"은평구청","address":"서울 은평구 은평로 195","tel":"02-351-6114","longitud":126.9289387,"latitude":37.60281744,"admin_id":"teamwemmy@gmail.com","category_main":"행정시설","category_sub":"구청","cityName":"서울시","borough":"은평구","operating_hours":"<운영시간>\n- 월~금 \/ 09:00 ~ 18:00\n- 토,일 및 공휴일 \/ 휴무"}
,{"unique_id":2992942421,"facilityName":"서대문구청 제3별관","address":"서울 서대문구 연희로 247","tel":"02-330-1301","longitud":126.9358715,"latitude":37.57910549,"admin_id":"teamwemmy@gmail.com","category_main":"행정시설","category_sub":"구청","cityName":"서울시","borough":"서대문구","operating_hours":"<운영시간>\n- 월~금 \/ 09:00 ~ 18:00\n- 토,일 및 공휴일 \/ 휴무"}
,{"unique_id":5284656307,"facilityName":"다산동주민센터","address":"서울 중구 동호로15길 50","tel":"02-3396-6740","longitud":127.0083023,"latitude":37.5543182,"admin_id":"teamwemmy@gmail.com","category_main":"행정시설","category_sub":"주민센터","cityName":"서울시","borough":"중구","operating_hours":"<운영시간>\n- 월~금 \/ 09:00 ~ 18:00\n- 토,일 및 공휴일 \/ 휴무"}
,{"unique_id":6270162817,"facilityName":"장충동주민센터","address":"서울 중구 장충단로8길 22","tel":"02-3396-6620","longitud":127.0078594,"latitude":37.56191184,"admin_id":"teamwemmy@gmail.com","category_main":"행정시설","category_sub":"주민센터","cityName":"서울시","borough":"중구","operating_hours":"<운영시간>\n- 월~금 \/ 09:00 ~ 18:00\n- 토,일 및 공휴일 \/ 휴무"}
,{"unique_id":4739620210,"facilityName":"신당동주민센터","address":"서울 중구 다산로33길 3","tel":"02-3396-6710","longitud":127.0144422,"latitude":37.56201393,"admin_id":"teamwemmy@gmail.com","category_main":"행정시설","category_sub":"주민센터","cityName":"서울시","borough":"중구","operating_hours":"<운영시간>\n- 월~금 \/ 09:00 ~ 18:00\n- 토,일 및 공휴일 \/ 휴무"}
,{"unique_id":9977470398,"facilityName":"황학동주민센터","address":"서울 중구 난계로11길 52","tel":"02-3396-6890","longitud":127.0214158,"latitude":37.56749994,"admin_id":"teamwemmy@gmail.com","category_main":"행정시설","category_sub":"주민센터","cityName":"서울시","borough":"중구","operating_hours":"<운영시간>\n- 월~금 \/ 09:00 ~ 18:00\n- 토,일 및 공휴일 \/ 휴무"}
,{"unique_id":6854572152,"facilityName":"동화동주민센터","address":"서울 중구 다산로36길 100","tel":"02-3396-6860","longitud":127.0194308,"latitude":37.55998597,"admin_id":"teamwemmy@gmail.com","category_main":"행정시설","category_sub":"주민센터","cityName":"서울시","borough":"중구","operating_hours":"<운영시간>\n- 월~금 \/ 09:00 ~ 18:00\n- 토,일 및 공휴일 \/ 휴무"}
,{"unique_id":7895012403,"facilityName":"청구동주민센터","address":"서울 중구 청구로3길 55","tel":"02-3396-6800","longitud":127.0147219,"latitude":37.55705661,"admin_id":"teamwemmy@gmail.com","category_main":"행정시설","category_sub":"주민센터","cityName":"서울시","borough":"중구","operating_hours":"<운영시간>\n- 월~금 \/ 09:00 ~ 18:00\n- 토,일 및 공휴일 \/ 휴무"}
,{"unique_id":9659515862,"facilityName":"신당제5동주민센터","address":"서울 중구 다산로44길 85","tel":"02-3396-6830","longitud":127.021877,"latitude":37.56513204,"admin_id":"teamwemmy@gmail.com","category_main":"행정시설","category_sub":"주민센터","cityName":"서울시","borough":"중구","operating_hours":"<운영시간>\n- 월~금 \/ 09:00 ~ 18:00\n- 토,일 및 공휴일 \/ 휴무"}
,{"unique_id":6230939911,"facilityName":"약수동주민센터","address":"서울 중구 다산로 92","tel":"02-3396-6770","longitud":127.0090037,"latitude":37.55243326,"admin_id":"teamwemmy@gmail.com","category_main":"행정시설","category_sub":"주민센터","cityName":"서울시","borough":"중구","operating_hours":"<운영시간>\n- 월~금 \/ 09:00 ~ 18:00\n- 토,일 및 공휴일 \/ 휴무"}
,{"unique_id":2830265733,"facilityName":"성동구청","address":"서울 성동구 고산자로 270","tel":"02-2286-5114","longitud":127.0369301,"latitude":37.56342721,"admin_id":"teamwemmy@gmail.com","category_main":"행정시설","category_sub":"구청","cityName":"서울시","borough":"성동구","operating_hours":"<운영시간>\n- 월~금 \/ 09:00 ~ 18:00\n- 토,일 및 공휴일 \/ 휴무"}
,{"unique_id":6417022690,"facilityName":"용산구청","address":"서울 용산구 녹사평대로 150","tel":"02-2199-6114","longitud":126.9905756,"latitude":37.53242563,"admin_id":"teamwemmy@gmail.com","category_main":"행정시설","category_sub":"구청","cityName":"서울시","borough":"용산구","operating_hours":"<운영시간>\n- 월~금 \/ 09:00 ~ 18:00\n- 토,일 및 공휴일 \/ 휴무"}
,{"unique_id":2642737131,"facilityName":"동대문구청","address":"서울 동대문구 천호대로 145","tel":"02-2127-5000","longitud":127.0397474,"latitude":37.57441844,"admin_id":"teamwemmy@gmail.com","category_main":"행정시설","category_sub":"구청","cityName":"서울시","borough":"동대문구","operating_hours":"<운영시간>\n- 월~금 \/ 09:00 ~ 18:00\n- 토,일 및 공휴일 \/ 휴무"}
,{"unique_id":8201106383,"facilityName":"강남구청","address":"서울 강남구 학동로 426","tel":"02-3423-5114","longitud":127.0473774,"latitude":37.51733193,"admin_id":"teamwemmy@gmail.com","category_main":"행정시설","category_sub":"구청","cityName":"서울시","borough":"강남구","operating_hours":"<운영시간>\n- 월~금 \/ 09:00 ~ 18:00\n- 토,일 및 공휴일 \/ 휴무"}
,{"unique_id":3949723646,"facilityName":"동작구청","address":"서울 동작구 장승배기로 161","tel":"02-820-1114","longitud":126.9393151,"latitude":37.51248204,"admin_id":"teamwemmy@gmail.com","category_main":"행정시설","category_sub":"구청","cityName":"서울시","borough":"동작구","operating_hours":"<운영시간>\n- 월~금 \/ 09:00 ~ 18:00\n- 토,일 및 공휴일 \/ 휴무"}
,{"unique_id":8463235752,"facilityName":"한남동주민센터","address":"서울 용산구 대사관로5길 1","tel":"02-2199-8660","longitud":127.0005521,"latitude":37.53462986,"admin_id":"teamwemmy@gmail.com","category_main":"행정시설","category_sub":"주민센터","cityName":"서울시","borough":"용산구","operating_hours":"<운영시간>\n- 월~금 \/ 09:00 ~ 18:00\n- 토,일 및 공휴일 \/ 휴무"}
,{"unique_id":7323343616,"facilityName":"보광동주민센터","address":"서울 용산구 장문로 95","tel":"02-2199-8700","longitud":127.0001697,"latitude":37.52627217,"admin_id":"teamwemmy@gmail.com","category_main":"행정시설","category_sub":"주민센터","cityName":"서울시","borough":"용산구","operating_hours":"<운영시간>\n- 월~금 \/ 09:00 ~ 18:00\n- 토,일 및 공휴일 \/ 휴무"}
,{"unique_id":3072367882,"facilityName":"청파동주민센터","address":"서울 용산구 청파로49길 6","tel":"02-2199-8460","longitud":126.9698637,"latitude":37.5454308,"admin_id":"teamwemmy@gmail.com","category_main":"행정시설","category_sub":"주민센터","cityName":"서울시","borough":"용산구","operating_hours":"<운영시간>\n- 월~금 \/ 09:00 ~ 18:00\n- 토,일 및 공휴일 \/ 휴무"}
,{"unique_id":6747492275,"facilityName":"한강로동주민센터","address":"서울 용산구 한강대로38길 28","tel":"02-2199-8560","longitud":126.9692281,"latitude":37.52814044,"admin_id":"teamwemmy@gmail.com","category_main":"행정시설","category_sub":"주민센터","cityName":"서울시","borough":"용산구","operating_hours":"<운영시간>\n- 월~금 \/ 09:00 ~ 18:00\n- 토,일 및 공휴일 \/ 휴무"}
,{"unique_id":6358947894,"facilityName":"후암동주민센터","address":"서울 용산구 후암로 32-6","tel":"02-2199-8400","longitud":126.9781505,"latitude":37.54867983,"admin_id":"teamwemmy@gmail.com","category_main":"행정시설","category_sub":"주민센터","cityName":"서울시","borough":"용산구","operating_hours":"<운영시간>\n- 월~금 \/ 09:00 ~ 18:00\n- 토,일 및 공휴일 \/ 휴무"}
,{"unique_id":3596356664,"facilityName":"남영동주민센터","address":"서울 용산구 두텁바위로 25","tel":"02-2199-8440","longitud":126.9748833,"latitude":37.5457239,"admin_id":"teamwemmy@gmail.com","category_main":"행정시설","category_sub":"주민센터","cityName":"서울시","borough":"용산구","operating_hours":"<운영시간>\n- 월~금 \/ 09:00 ~ 18:00\n- 토,일 및 공휴일 \/ 휴무"}
,{"unique_id":7366419336,"facilityName":"원효로1동주민센터","address":"서울 용산구 백범로 350","tel":"02-2199-8480","longitud":126.9677127,"latitude":37.53732845,"admin_id":"teamwemmy@gmail.com","category_main":"행정시설","category_sub":"주민센터","cityName":"서울시","borough":"용산구","operating_hours":"<운영시간>\n- 월~금 \/ 09:00 ~ 18:00\n- 토,일 및 공휴일 \/ 휴무"}
,{"unique_id":8551201577,"facilityName":"용산2가동주민센터","address":"서울 용산구 신흥로 90","tel":"02-2199-6114","longitud":126.9855756,"latitude":37.54612483,"admin_id":"teamwemmy@gmail.com","category_main":"행정시설","category_sub":"주민센터","cityName":"서울시","borough":"용산구","operating_hours":"<운영시간>\n- 월~금 \/ 09:00 ~ 18:00\n- 토,일 및 공휴일 \/ 휴무"}
,{"unique_id":3791130277,"facilityName":"서빙고동주민센터","address":"서울 용산구 서빙고로 279","tel":"02-2199-8680","longitud":126.9946381,"latitude":37.52046238,"admin_id":"teamwemmy@gmail.com","category_main":"행정시설","category_sub":"주민센터","cityName":"서울시","borough":"용산구","operating_hours":"<운영시간>\n- 월~금 \/ 09:00 ~ 18:00\n- 토,일 및 공휴일 \/ 휴무"}
,{"unique_id":4236111011,"facilityName":"이촌2동주민센터","address":"서울 용산구 이촌로18길 20","tel":"02-2199-8600","longitud":126.9546759,"latitude":37.52625987,"admin_id":"teamwemmy@gmail.com","category_main":"행정시설","category_sub":"주민센터","cityName":"서울시","borough":"용산구","operating_hours":"<운영시간>\n- 월~금 \/ 09:00 ~ 18:00\n- 토,일 및 공휴일 \/ 휴무"}
,{"unique_id":3865288012,"facilityName":"용문동주민센터","address":"서울 용산구 새창로12길 13","tel":"02-2199-8540","longitud":126.9576011,"latitude":37.5389002,"admin_id":"teamwemmy@gmail.com","category_main":"행정시설","category_sub":"주민센터","cityName":"서울시","borough":"용산구","operating_hours":"<운영시간>\n- 월~금 \/ 09:00 ~ 18:00\n- 토,일 및 공휴일 \/ 휴무"}
,{"unique_id":7004268928,"facilityName":"이촌1동주민센터","address":"서울 용산구 이촌로71길 24","tel":"02-2199-8580","longitud":126.9733168,"latitude":37.52139653,"admin_id":"teamwemmy@gmail.com","category_main":"행정시설","category_sub":"주민센터","cityName":"서울시","borough":"용산구","operating_hours":"<운영시간>\n- 월~금 \/ 09:00 ~ 18:00\n- 토,일 및 공휴일 \/ 휴무"}
,{"unique_id":4842474843,"facilityName":"이태원2동주민센터","address":"서울 용산구 회나무로13길 58","tel":"02-2199-8640","longitud":126.9901964,"latitude":37.54190232,"admin_id":"teamwemmy@gmail.com","category_main":"행정시설","category_sub":"주민센터","cityName":"서울시","borough":"용산구","operating_hours":"<운영시간>\n- 월~금 \/ 09:00 ~ 18:00\n- 토,일 및 공휴일 \/ 휴무"}
,{"unique_id":3638716620,"facilityName":"효창동주민센터","address":"서울 용산구 효창원로 161","tel":"02-2199-8520","longitud":126.9618989,"latitude":37.54245881,"admin_id":"teamwemmy@gmail.com","category_main":"행정시설","category_sub":"주민센터","cityName":"서울시","borough":"용산구","operating_hours":"<운영시간>\n- 월~금 \/ 09:00 ~ 18:00\n- 토,일 및 공휴일 \/ 휴무"}
,{"unique_id":2660431330,"facilityName":"원효로2동주민센터","address":"서울 용산구 효창원로8길 3","tel":"02-2199-8500","longitud":126.9515302,"latitude":37.53436042,"admin_id":"teamwemmy@gmail.com","category_main":"행정시설","category_sub":"주민센터","cityName":"서울시","borough":"용산구","operating_hours":"<운영시간>\n- 월~금 \/ 09:00 ~ 18:00\n- 토,일 및 공휴일 \/ 휴무"}
,{"unique_id":6244980226,"facilityName":"성수1가제2동주민센터","address":"서울 성동구 왕십리로5길 3","tel":"02-2286-7441","longitud":127.0443133,"latitude":37.54636247,"admin_id":"teamwemmy@gmail.com","category_main":"행정시설","category_sub":"주민센터","cityName":"서울시","borough":"성동구","operating_hours":"<운영시간>\n- 월~금 \/ 09:00 ~ 18:00\n- 토,일 및 공휴일 \/ 휴무"}
,{"unique_id":3924720845,"facilityName":"왕십리도선동주민센터","address":"서울 성동구 마장로 141","tel":"02-2286-7201","longitud":127.0255316,"latitude":37.56788114,"admin_id":"teamwemmy@gmail.com","category_main":"행정시설","category_sub":"주민센터","cityName":"서울시","borough":"성동구","operating_hours":"<운영시간>\n- 월~금 \/ 09:00 ~ 18:00\n- 토,일 및 공휴일 \/ 휴무"}
,{"unique_id":6659825519,"facilityName":"사근동주민센터","address":"서울 성동구 사근동길 37","tel":"02-2286-7262","longitud":127.0453273,"latitude":37.56149975,"admin_id":"teamwemmy@gmail.com","category_main":"행정시설","category_sub":"주민센터","cityName":"서울시","borough":"성동구","operating_hours":"<운영시간>\n- 월~금 \/ 09:00 ~ 18:00\n- 토,일 및 공휴일 \/ 휴무"}
,{"unique_id":3084438483,"facilityName":"성수1가제1동주민센터","address":"서울 성동구 뚝섬로3길 18","tel":"02-2286-7421","longitud":127.0496516,"latitude":37.5420797,"admin_id":"teamwemmy@gmail.com","category_main":"행정시설","category_sub":"주민센터","cityName":"서울시","borough":"성동구","operating_hours":"<운영시간>\n- 월~금 \/ 09:00 ~ 18:00\n- 토,일 및 공휴일 \/ 휴무"}
,{"unique_id":9511013972,"facilityName":"성수2가제1동주민센터","address":"서울 성동구 뚝섬로 385-19","tel":"02-2286-7461","longitud":127.0540356,"latitude":37.53955498,"admin_id":"teamwemmy@gmail.com","category_main":"행정시설","category_sub":"주민센터","cityName":"서울시","borough":"성동구","operating_hours":"<운영시간>\n- 월~금 \/ 09:00 ~ 18:00\n- 토,일 및 공휴일 \/ 휴무"}
,{"unique_id":2371668054,"facilityName":"왕십리제2동주민센터","address":"서울 성동구 무학봉15길 6","tel":"02-2286-7222","longitud":127.0309952,"latitude":37.5617945,"admin_id":"teamwemmy@gmail.com","category_main":"행정시설","category_sub":"주민센터","cityName":"서울시","borough":"성동구","operating_hours":"<운영시간>\n- 월~금 \/ 09:00 ~ 18:00\n- 토,일 및 공휴일 \/ 휴무"}
,{"unique_id":8528752980,"facilityName":"송정동주민센터","address":"서울 성동구 동일로43길 13","tel":"02-2286-7501","longitud":127.0695691,"latitude":37.55453226,"admin_id":"teamwemmy@gmail.com","category_main":"행정시설","category_sub":"주민센터","cityName":"서울시","borough":"성동구","operating_hours":"<운영시간>\n- 월~금 \/ 09:00 ~ 18:00\n- 토,일 및 공휴일 \/ 휴무"}
,{"unique_id":7304061109,"facilityName":"행당1동주민센터","address":"서울 성동구 고산자로10길 18","tel":"02-2286-7281","longitud":127.0362034,"latitude":37.55850438,"admin_id":"teamwemmy@gmail.com","category_main":"행정시설","category_sub":"주민센터","cityName":"서울시","borough":"성동구","operating_hours":"<운영시간>\n- 월~금 \/ 09:00 ~ 18:00\n- 토,일 및 공휴일 \/ 휴무"}
,{"unique_id":1998786765,"facilityName":"용답동주민센터","address":"서울 성동구 용답중앙23길 20","tel":"02-2286-7522","longitud":127.0555791,"latitude":37.56407582,"admin_id":"teamwemmy@gmail.com","category_main":"행정시설","category_sub":"주민센터","cityName":"서울시","borough":"성동구","operating_hours":"<운영시간>\n- 월~금 \/ 09:00 ~ 18:00\n- 토,일 및 공휴일 \/ 휴무"}
,{"unique_id":6015710739,"facilityName":"성수2가 제3동주민센터","address":"서울 성동구 광나루로2길 35","tel":"02-2286-7481","longitud":127.0552504,"latitude":37.54821842,"admin_id":"teamwemmy@gmail.com","category_main":"행정시설","category_sub":"주민센터","cityName":"서울시","borough":"성동구","operating_hours":"<운영시간>\n- 월~금 \/ 09:00 ~ 18:00\n- 토,일 및 공휴일 \/ 휴무"}
,{"unique_id":6816838520,"facilityName":"금호2,3가동주민센터","address":"서울 성동구 무수막18길 1","tel":"02-2286-7377","longitud":127.0209184,"latitude":37.55329311,"admin_id":"teamwemmy@gmail.com","category_main":"행정시설","category_sub":"주민센터","cityName":"서울시","borough":"성동구","operating_hours":"<운영시간>\n- 월~금 \/ 09:00 ~ 18:00\n- 토,일 및 공휴일 \/ 휴무"}
,{"unique_id":4754320193,"facilityName":"마장동주민센터","address":"서울 성동구 마장로42길 11","tel":"02-2286-7241","longitud":127.0453258,"latitude":37.56637955,"admin_id":"teamwemmy@gmail.com","category_main":"행정시설","category_sub":"주민센터","cityName":"서울시","borough":"성동구","operating_hours":"<운영시간>\n- 월~금 \/ 09:00 ~ 18:00\n- 토,일 및 공휴일 \/ 휴무"}
,{"unique_id":6084894326,"facilityName":"응봉동주민센터","address":"서울 성동구 독서당로 424","tel":"02-2286-7321","longitud":127.0334168,"latitude":37.55316049,"admin_id":"teamwemmy@gmail.com","category_main":"행정시설","category_sub":"주민센터","cityName":"서울시","borough":"성동구","operating_hours":"<운영시간>\n- 월~금 \/ 09:00 ~ 18:00\n- 토,일 및 공휴일 \/ 휴무"}
,{"unique_id":5415931579,"facilityName":"옥수동주민센터","address":"서울 성동구 독서당로 203","tel":"02-2286-7401","longitud":127.0134361,"latitude":37.54358774,"admin_id":"teamwemmy@gmail.com","category_main":"행정시설","category_sub":"주민센터","cityName":"서울시","borough":"성동구","operating_hours":"<운영시간>\n- 월~금 \/ 09:00 ~ 18:00\n- 토,일 및 공휴일 \/ 휴무"}
,{"unique_id":3925780459,"facilityName":"금호4가동주민센터","address":"서울 성동구 독서당로46길 26","tel":"02-2286-7381","longitud":127.0224013,"latitude":37.54719127,"admin_id":"teamwemmy@gmail.com","category_main":"행정시설","category_sub":"주민센터","cityName":"서울시","borough":"성동구","operating_hours":"<운영시간>\n- 월~금 \/ 09:00 ~ 18:00\n- 토,일 및 공휴일 \/ 휴무"}
,{"unique_id":8119495863,"facilityName":"행당제2동주민센터","address":"서울 성동구 행당로9길 9","tel":"02-2286-7301","longitud":127.0293402,"latitude":37.55826482,"admin_id":"teamwemmy@gmail.com","category_main":"행정시설","category_sub":"주민센터","cityName":"서울시","borough":"성동구","operating_hours":"<운영시간>\n- 월~금 \/ 09:00 ~ 18:00\n- 토,일 및 공휴일 \/ 휴무"}
,{"unique_id":1885683233,"facilityName":"금호1가동주민센터","address":"서울 성동구 행당로 15","tel":"02-2286-7341","longitud":127.0216431,"latitude":37.5548499,"admin_id":"teamwemmy@gmail.com","category_main":"행정시설","category_sub":"주민센터","cityName":"서울시","borough":"성동구","operating_hours":"<운영시간>\n- 월~금 \/ 09:00 ~ 18:00\n- 토,일 및 공휴일 \/ 휴무"}
,{"unique_id":7299011918,"facilityName":"용신동주민센터","address":"서울 동대문구 천호대로27길 35","tel":"02-2171-6022","longitud":127.0372623,"latitude":37.57580317,"admin_id":"teamwemmy@gmail.com","category_main":"행정시설","category_sub":"주민센터","cityName":"서울시","borough":"동대문구","operating_hours":"<운영시간>\n- 월~금 \/ 09:00 ~ 18:00\n- 토,일 및 공휴일 \/ 휴무"}
,{"unique_id":6834139687,"facilityName":"답십리1동주민센터","address":"서울 동대문구 사가정로 30","tel":"02-2171-6222","longitud":127.0512742,"latitude":37.5717903,"admin_id":"teamwemmy@gmail.com","category_main":"행정시설","category_sub":"주민센터","cityName":"서울시","borough":"동대문구","operating_hours":"<운영시간>\n- 월~금 \/ 09:00 ~ 18:00\n- 토,일 및 공휴일 \/ 휴무"}
,{"unique_id":8051463815,"facilityName":"전농1동주민센터","address":"서울 동대문구 서울시립대로9길 21","tel":"02-2171-6102","longitud":127.0477045,"latitude":37.57802307,"admin_id":"teamwemmy@gmail.com","category_main":"행정시설","category_sub":"주민센터","cityName":"서울시","borough":"동대문구","operating_hours":"<운영시간>\n- 월~금 \/ 09:00 ~ 18:00\n- 토,일 및 공휴일 \/ 휴무"}
,{"unique_id":1215839450,"facilityName":"답십리2동주민센터","address":"서울 동대문구 한천로11길 18","tel":"02-2171-6242","longitud":127.0612863,"latitude":37.5673274,"admin_id":"teamwemmy@gmail.com","category_main":"행정시설","category_sub":"주민센터","cityName":"서울시","borough":"동대문구","operating_hours":"<운영시간>\n- 월~금 \/ 09:00 ~ 18:00\n- 토,일 및 공휴일 \/ 휴무"}
,{"unique_id":2604516518,"facilityName":"제기동주민센터","address":"서울 동대문구 약령시로 71","tel":"02-2171-6063","longitud":127.0378184,"latitude":37.58311546,"admin_id":"teamwemmy@gmail.com","category_main":"행정시설","category_sub":"주민센터","cityName":"서울시","borough":"동대문구","operating_hours":"<운영시간>\n- 월~금 \/ 09:00 ~ 18:00\n- 토,일 및 공휴일 \/ 휴무"}
,{"unique_id":9753378191,"facilityName":"청량리동주민센터","address":"서울 동대문구 왕산로 239","tel":"02-2171-6365","longitud":127.0481696,"latitude":37.58304592,"admin_id":"teamwemmy@gmail.com","category_main":"행정시설","category_sub":"주민센터","cityName":"서울시","borough":"동대문구","operating_hours":"<운영시간>\n- 월~금 \/ 09:00 ~ 18:00\n- 토,일 및 공휴일 \/ 휴무"}
,{"unique_id":4587625174,"facilityName":"장안1동주민센터","address":"서울 동대문구 한천로18길 52","tel":"02-2171-6281","longitud":127.0664403,"latitude":37.56778772,"admin_id":"teamwemmy@gmail.com","category_main":"행정시설","category_sub":"주민센터","cityName":"서울시","borough":"동대문구","operating_hours":"<운영시간>\n- 월~금 \/ 09:00 ~ 18:00\n- 토,일 및 공휴일 \/ 휴무"}
,{"unique_id":4772025413,"facilityName":"전농2동주민센터","address":"서울 동대문구 사가정로 137","tel":"02-2171-6142","longitud":127.0600226,"latitude":37.57804268,"admin_id":"teamwemmy@gmail.com","category_main":"행정시설","category_sub":"주민센터","cityName":"서울시","borough":"동대문구","operating_hours":"<운영시간>\n- 월~금 \/ 09:00 ~ 18:00\n- 토,일 및 공휴일 \/ 휴무"}
,{"unique_id":6250016784,"facilityName":"광진구청","address":"서울 광진구 자양로 117","tel":"02-450-1114","longitud":127.0823852,"latitude":37.53855831,"admin_id":"teamwemmy@gmail.com","category_main":"행정시설","category_sub":"구청","cityName":"서울시","borough":"광진구","operating_hours":"<운영시간>\n- 월~금 \/ 09:00 ~ 18:00\n- 토,일 및 공휴일 \/ 휴무"}
,{"unique_id":9131516450,"facilityName":"중랑구청","address":"서울 중랑구 봉화산로 179","tel":"02-2094-0114","longitud":127.0928203,"latitude":37.60654324,"admin_id":"teamwemmy@gmail.com","category_main":"행정시설","category_sub":"구청","cityName":"서울시","borough":"중랑구","operating_hours":"<운영시간>\n- 월~금 \/ 09:00 ~ 18:00\n- 토,일 및 공휴일 \/ 휴무"}
,{"unique_id":7164332927,"facilityName":"중곡3동주민센터 임시청사","address":"서울 광진구 용마산로 117","tel":"02-450-1503","longitud":127.0865536,"latitude":37.56403736,"admin_id":"teamwemmy@gmail.com","category_main":"행정시설","category_sub":"주민센터","cityName":"서울시","borough":"광진구","operating_hours":"<운영시간>\n- 월~금 \/ 09:00 ~ 18:00\n- 토,일 및 공휴일 \/ 휴무"}
,{"unique_id":6102092359,"facilityName":"중곡4동주민센터","address":"서울 광진구 긴고랑로 131","tel":"02-450-1504","longitud":127.0894475,"latitude":37.55907792,"admin_id":"teamwemmy@gmail.com","category_main":"행정시설","category_sub":"주민센터","cityName":"서울시","borough":"광진구","operating_hours":"<운영시간>\n- 월~금 \/ 09:00 ~ 18:00\n- 토,일 및 공휴일 \/ 휴무"}
,{"unique_id":1441671449,"facilityName":"군자동주민센터","address":"서울 광진구 면목로 13","tel":"02-450-1516","longitud":127.0753508,"latitude":37.55547656,"admin_id":"teamwemmy@gmail.com","category_main":"행정시설","category_sub":"주민센터","cityName":"서울시","borough":"광진구","operating_hours":"<운영시간>\n- 월~금 \/ 09:00 ~ 18:00\n- 토,일 및 공휴일 \/ 휴무"}
,{"unique_id":1574412690,"facilityName":"구의2동주민센터","address":"서울 광진구 천호대로136길 55","tel":"02-450-1507","longitud":127.0899346,"latitude":37.54716996,"admin_id":"teamwemmy@gmail.com","category_main":"행정시설","category_sub":"주민센터","cityName":"서울시","borough":"광진구","operating_hours":"<운영시간>\n- 월~금 \/ 09:00 ~ 18:00\n- 토,일 및 공휴일 \/ 휴무"}
,{"unique_id":5319305789,"facilityName":"자양2동주민센터","address":"서울 광진구 자양로3가길 26","tel":"02-450-1511","longitud":127.0844154,"latitude":37.52884409,"admin_id":"teamwemmy@gmail.com","category_main":"행정시설","category_sub":"주민센터","cityName":"서울시","borough":"광진구","operating_hours":"<운영시간>\n- 월~금 \/ 09:00 ~ 18:00\n- 토,일 및 공휴일 \/ 휴무"}
,{"unique_id":7492798637,"facilityName":"자양3동주민센터","address":"서울 광진구 뚝섬로 568","tel":"02-450-1512","longitud":127.0729033,"latitude":37.53383249,"admin_id":"teamwemmy@gmail.com","category_main":"행정시설","category_sub":"주민센터","cityName":"서울시","borough":"광진구","operating_hours":"<운영시간>\n- 월~금 \/ 09:00 ~ 18:00\n- 토,일 및 공휴일 \/ 휴무"}
,{"unique_id":5475733839,"facilityName":"화양동주민센터","address":"서울 광진구 능동로17길 39","tel":"02-450-1515","longitud":127.0713676,"latitude":37.54647626,"admin_id":"teamwemmy@gmail.com","category_main":"행정시설","category_sub":"주민센터","cityName":"서울시","borough":"광진구","operating_hours":"<운영시간>\n- 월~금 \/ 09:00 ~ 18:00\n- 토,일 및 공휴일 \/ 휴무"}
,{"unique_id":8093687955,"facilityName":"구의3동주민센터","address":"서울 광진구 강변역로 17","tel":"02-450-1508","longitud":127.0919613,"latitude":37.53798181,"admin_id":"teamwemmy@gmail.com","category_main":"행정시설","category_sub":"주민센터","cityName":"서울시","borough":"광진구","operating_hours":"<운영시간>\n- 월~금 \/ 09:00 ~ 18:00\n- 토,일 및 공휴일 \/ 휴무"}
,{"unique_id":3733795572,"facilityName":"자양4동주민센터","address":"서울 광진구 뚝섬로26길 58","tel":"02-450-1513","longitud":127.0663052,"latitude":37.53407425,"admin_id":"teamwemmy@gmail.com","category_main":"행정시설","category_sub":"주민센터","cityName":"서울시","borough":"광진구","operating_hours":"<운영시간>\n- 월~금 \/ 09:00 ~ 18:00\n- 토,일 및 공휴일 \/ 휴무"}
,{"unique_id":5313933496,"facilityName":"구의1동주민센터","address":"서울 광진구 광나루로36길 56","tel":"02-450-1506","longitud":127.0856754,"latitude":37.54241225,"admin_id":"teamwemmy@gmail.com","category_main":"행정시설","category_sub":"주민센터","cityName":"서울시","borough":"광진구","operating_hours":"<운영시간>\n- 월~금 \/ 09:00 ~ 18:00\n- 토,일 및 공휴일 \/ 휴무"}
,{"unique_id":3870026794,"facilityName":"중곡1동주민센터","address":"서울 광진구 긴고랑로12길 49","tel":"02-450-1501","longitud":127.0800508,"latitude":37.56066681,"admin_id":"teamwemmy@gmail.com","category_main":"행정시설","category_sub":"주민센터","cityName":"서울시","borough":"광진구","operating_hours":"<운영시간>\n- 월~금 \/ 09:00 ~ 18:00\n- 토,일 및 공휴일 \/ 휴무"}
,{"unique_id":3585197762,"facilityName":"중곡2동주민센터","address":"서울 광진구 능동로 346","tel":"02-450-1502","longitud":127.0815263,"latitude":37.56028739,"admin_id":"teamwemmy@gmail.com","category_main":"행정시설","category_sub":"주민센터","cityName":"서울시","borough":"광진구","operating_hours":"<운영시간>\n- 월~금 \/ 09:00 ~ 18:00\n- 토,일 및 공휴일 \/ 휴무"}
,{"unique_id":8041301005,"facilityName":"광장동주민센터","address":"서울 광진구 광장로 52","tel":"02-450-1509","longitud":127.1030268,"latitude":37.54685743,"admin_id":"teamwemmy@gmail.com","category_main":"행정시설","category_sub":"주민센터","cityName":"서울시","borough":"광진구","operating_hours":"<운영시간>\n- 월~금 \/ 09:00 ~ 18:00\n- 토,일 및 공휴일 \/ 휴무"}
,{"unique_id":8359110085,"facilityName":"능동주민센터","address":"서울 광진구 천호대로112길 55","tel":"02-450-1505","longitud":127.0805369,"latitude":37.55377926,"admin_id":"teamwemmy@gmail.com","category_main":"행정시설","category_sub":"주민센터","cityName":"서울시","borough":"광진구","operating_hours":"<운영시간>\n- 월~금 \/ 09:00 ~ 18:00\n- 토,일 및 공휴일 \/ 휴무"}
,{"unique_id":7744208850,"facilityName":"자양1동주민센터","address":"서울 광진구 자양로13길 37","tel":"02-450-1510","longitud":127.0824396,"latitude":37.53450738,"admin_id":"teamwemmy@gmail.com","category_main":"행정시설","category_sub":"주민센터","cityName":"서울시","borough":"광진구","operating_hours":"<운영시간>\n- 월~금 \/ 09:00 ~ 18:00\n- 토,일 및 공휴일 \/ 휴무"}
,{"unique_id":8033234983,"facilityName":"송파구청","address":"서울 송파구 올림픽로 326","tel":"02-2147-2000","longitud":127.1059177,"latitude":37.51458372,"admin_id":"teamwemmy@gmail.com","category_main":"행정시설","category_sub":"구청","cityName":"서울시","borough":"송파구","operating_hours":"<운영시간>\n- 월~금 \/ 09:00 ~ 18:00\n- 토,일 및 공휴일 \/ 휴무"}
,{"unique_id":1463762460,"facilityName":"강동구청","address":"서울 강동구 성내로 25","tel":"1577-1188","longitud":127.1237925,"latitude":37.53019332,"admin_id":"teamwemmy@gmail.com","category_main":"행정시설","category_sub":"구청","cityName":"서울시","borough":"강동구","operating_hours":"<운영시간>\n- 월~금 \/ 09:00 ~ 18:00\n- 토,일 및 공휴일 \/ 휴무"}
,{"unique_id":2217616754,"facilityName":"서초구청","address":"서울 서초구 남부순환로 2584","tel":"02-2155-6114","longitud":127.0327323,"latitude":37.48358701,"admin_id":"teamwemmy@gmail.com","category_main":"행정시설","category_sub":"구청","cityName":"서울시","borough":"서초구","operating_hours":"<운영시간>\n- 월~금 \/ 09:00 ~ 18:00\n- 토,일 및 공휴일 \/ 휴무"}
,{"unique_id":8607208534,"facilityName":"장안2동주민센터","address":"서울 동대문구 사가정로 230-1","tel":"02-2171-6344","longitud":127.0706147,"latitude":37.57845848,"admin_id":"teamwemmy@gmail.com","category_main":"행정시설","category_sub":"주민센터","cityName":"서울시","borough":"동대문구","operating_hours":"<운영시간>\n- 월~금 \/ 09:00 ~ 18:00\n- 토,일 및 공휴일 \/ 휴무"}
,{"unique_id":1717662760,"facilityName":"휘경1동주민센터","address":"서울 동대문구 외대역동로6길 3","tel":"02-2171-6423","longitud":127.0657901,"latitude":37.59296816,"admin_id":"teamwemmy@gmail.com","category_main":"행정시설","category_sub":"주민센터","cityName":"서울시","borough":"동대문구","operating_hours":"<운영시간>\n- 월~금 \/ 09:00 ~ 18:00\n- 토,일 및 공휴일 \/ 휴무"}
,{"unique_id":7486534516,"facilityName":"회기동주민센터","address":"서울 동대문구 회기로25길 12-1","tel":"02-2171-6402","longitud":127.0553725,"latitude":37.5907886,"admin_id":"teamwemmy@gmail.com","category_main":"행정시설","category_sub":"주민센터","cityName":"서울시","borough":"동대문구","operating_hours":"<운영시간>\n- 월~금 \/ 09:00 ~ 18:00\n- 토,일 및 공휴일 \/ 휴무"}
,{"unique_id":1852755894,"facilityName":"휘경2동주민센터","address":"서울 동대문구 한천로 329","tel":"02-2171-6442","longitud":127.0686148,"latitude":37.5901059,"admin_id":"teamwemmy@gmail.com","category_main":"행정시설","category_sub":"주민센터","cityName":"서울시","borough":"동대문구","operating_hours":"<운영시간>\n- 월~금 \/ 09:00 ~ 18:00\n- 토,일 및 공휴일 \/ 휴무"}
,{"unique_id":5173269321,"facilityName":"이문1동주민센터","address":"서울 동대문구 외대역동로 114-1","tel":"02-2171-6462","longitud":127.0655056,"latitude":37.59782195,"admin_id":"teamwemmy@gmail.com","category_main":"행정시설","category_sub":"주민센터","cityName":"서울시","borough":"동대문구","operating_hours":"<운영시간>\n- 월~금 \/ 09:00 ~ 18:00\n- 토,일 및 공휴일 \/ 휴무"}
,{"unique_id":1481338814,"facilityName":"이문2동주민센터","address":"서울 동대문구 신이문로 27-5","tel":"02-2171-6502","longitud":127.065121,"latitude":37.60339389,"admin_id":"teamwemmy@gmail.com","category_main":"행정시설","category_sub":"주민센터","cityName":"서울시","borough":"동대문구","operating_hours":"<운영시간>\n- 월~금 \/ 09:00 ~ 18:00\n- 토,일 및 공휴일 \/ 휴무"}
,{"unique_id":5503633249,"facilityName":"강북구청","address":"서울 강북구 도봉로89길 13","tel":"02-901-6114","longitud":127.0255381,"latitude":37.63975133,"admin_id":"teamwemmy@gmail.com","category_main":"행정시설","category_sub":"구청","cityName":"서울시","borough":"강북구","operating_hours":"<운영시간>\n- 월~금 \/ 09:00 ~ 18:00\n- 토,일 및 공휴일 \/ 휴무"}
,{"unique_id":7119055599,"facilityName":"망우본동주민센터","address":"서울 중랑구 망우로67길 10","tel":"02-2094-6480","longitud":127.1014146,"latitude":37.60053197,"admin_id":"teamwemmy@gmail.com","category_main":"행정시설","category_sub":"주민센터","cityName":"서울시","borough":"중랑구","operating_hours":"<운영시간>\n- 월~금 \/ 09:00 ~ 18:00\n- 토,일 및 공휴일 \/ 휴무"}
,{"unique_id":4705314862,"facilityName":"상봉2동주민센터","address":"서울 중랑구 동일로114길 10","tel":"02-2094-6280","longitud":127.0808735,"latitude":37.59299122,"admin_id":"teamwemmy@gmail.com","category_main":"행정시설","category_sub":"주민센터","cityName":"서울시","borough":"중랑구","operating_hours":"<운영시간>\n- 월~금 \/ 09:00 ~ 18:00\n- 토,일 및 공휴일 \/ 휴무"}
,{"unique_id":9549525930,"facilityName":"묵2동 문화체육복합센터","address":"서울 중랑구 중랑역로 181","tel":"02-2094-6440","longitud":127.0759717,"latitude":37.60956279,"admin_id":"teamwemmy@gmail.com","category_main":"행정시설","category_sub":"주민센터","cityName":"서울시","borough":"중랑구","operating_hours":"<운영시간>\n- 월~금 \/ 09:00 ~ 18:00\n- 토,일 및 공휴일 \/ 휴무"}
,{"unique_id":5004932136,"facilityName":"면목본동주민센터","address":"서울 중랑구 면목로 397","tel":"02-2094-6000","longitud":127.0874885,"latitude":37.58728052,"admin_id":"teamwemmy@gmail.com","category_main":"행정시설","category_sub":"주민센터","cityName":"서울시","borough":"중랑구","operating_hours":"<운영시간>\n- 월~금 \/ 09:00 ~ 18:00\n- 토,일 및 공휴일 \/ 휴무"}
,{"unique_id":9878735386,"facilityName":"신내1동주민센터","address":"서울 중랑구 용마산로129나길 35","tel":"02-2094-6560","longitud":127.0994967,"latitude":37.60587467,"admin_id":"teamwemmy@gmail.com","category_main":"행정시설","category_sub":"주민센터","cityName":"서울시","borough":"중랑구","operating_hours":"<운영시간>\n- 월~금 \/ 09:00 ~ 18:00\n- 토,일 및 공휴일 \/ 휴무"}
,{"unique_id":9589287811,"facilityName":"상봉1동주민센터","address":"서울 중랑구 상봉중앙로1길 6","tel":"02-2094-6240","longitud":127.0872134,"latitude":37.59984775,"admin_id":"teamwemmy@gmail.com","category_main":"행정시설","category_sub":"주민센터","cityName":"서울시","borough":"중랑구","operating_hours":"<운영시간>\n- 월~금 \/ 09:00 ~ 18:00\n- 토,일 및 공휴일 \/ 휴무"}
,{"unique_id":1584425931,"facilityName":"중화2동주민센터","address":"서울 중랑구 동일로129길 1","tel":"02-2094-6360","longitud":127.0795442,"latitude":37.59938466,"admin_id":"teamwemmy@gmail.com","category_main":"행정시설","category_sub":"주민센터","cityName":"서울시","borough":"중랑구","operating_hours":"<운영시간>\n- 월~금 \/ 09:00 ~ 18:00\n- 토,일 및 공휴일 \/ 휴무"}
,{"unique_id":2680352530,"facilityName":"면목2동주민센터","address":"서울 중랑구 동일로101길 20-15","tel":"02-2094-6040","longitud":127.0790313,"latitude":37.58978764,"admin_id":"teamwemmy@gmail.com","category_main":"행정시설","category_sub":"주민센터","cityName":"서울시","borough":"중랑구","operating_hours":"<운영시간>\n- 월~금 \/ 09:00 ~ 18:00\n- 토,일 및 공휴일 \/ 휴무"}
,{"unique_id":7035773122,"facilityName":"묵제1동주민센터","address":"서울 중랑구 공릉로2가길 5","tel":"02-2094-6400","longitud":127.0784844,"latitude":37.61241368,"admin_id":"teamwemmy@gmail.com","category_main":"행정시설","category_sub":"주민센터","cityName":"서울시","borough":"중랑구","operating_hours":"<운영시간>\n- 월~금 \/ 09:00 ~ 18:00\n- 토,일 및 공휴일 \/ 휴무"}
,{"unique_id":5499833935,"facilityName":"면목5동주민센터","address":"서울 중랑구 동일로 619","tel":"02-2094-6160","longitud":127.0794845,"latitude":37.58579053,"admin_id":"teamwemmy@gmail.com","category_main":"행정시설","category_sub":"주민센터","cityName":"서울시","borough":"중랑구","operating_hours":"<운영시간>\n- 월~금 \/ 09:00 ~ 18:00\n- 토,일 및 공휴일 \/ 휴무"}
,{"unique_id":9532788943,"facilityName":"면목4동주민센터","address":"서울 중랑구 면목로 246","tel":"02-2094-6132","longitud":127.0856082,"latitude":37.57470403,"admin_id":"teamwemmy@gmail.com","category_main":"행정시설","category_sub":"주민센터","cityName":"서울시","borough":"중랑구","operating_hours":"<운영시간>\n- 월~금 \/ 09:00 ~ 18:00\n- 토,일 및 공휴일 \/ 휴무"}
,{"unique_id":8561281710,"facilityName":"면목7동주민센터","address":"서울 중랑구 면목로36길 4","tel":"02-2094-6200","longitud":127.0860634,"latitude":37.57775627,"admin_id":"teamwemmy@gmail.com","category_main":"행정시설","category_sub":"주민센터","cityName":"서울시","borough":"중랑구","operating_hours":"<운영시간>\n- 월~금 \/ 09:00 ~ 18:00\n- 토,일 및 공휴일 \/ 휴무"}
,{"unique_id":5645540205,"facilityName":"중화1동주민센터","address":"서울 중랑구 동일로134길 17","tel":"02-2094-6320","longitud":127.080674,"latitude":37.60117145,"admin_id":"teamwemmy@gmail.com","category_main":"행정시설","category_sub":"주민센터","cityName":"서울시","borough":"중랑구","operating_hours":"<운영시간>\n- 월~금 \/ 09:00 ~ 18:00\n- 토,일 및 공휴일 \/ 휴무"}
,{"unique_id":8193818983,"facilityName":"신내2동주민센터","address":"서울 중랑구 봉화산로 190","tel":"02-2094-6600","longitud":127.0941789,"latitude":37.60624664,"admin_id":"teamwemmy@gmail.com","category_main":"행정시설","category_sub":"주민센터","cityName":"서울시","borough":"중랑구","operating_hours":"<운영시간>\n- 월~금 \/ 09:00 ~ 18:00\n- 토,일 및 공휴일 \/ 휴무"}
,{"unique_id":6675836796,"facilityName":"망우3동주민센터","address":"서울 중랑구 겸재로61길 40","tel":"02-2094-6520","longitud":127.0949172,"latitude":37.59189867,"admin_id":"teamwemmy@gmail.com","category_main":"행정시설","category_sub":"주민센터","cityName":"서울시","borough":"중랑구","operating_hours":"<운영시간>\n- 월~금 \/ 09:00 ~ 18:00\n- 토,일 및 공휴일 \/ 휴무"}
,{"unique_id":7835983554,"facilityName":"노원구청","address":"서울 노원구 노해로 437","tel":"02-2116-3000","longitud":127.0564305,"latitude":37.65436176,"admin_id":"teamwemmy@gmail.com","category_main":"행정시설","category_sub":"구청","cityName":"서울시","borough":"노원구","operating_hours":"<운영시간>\n- 월~금 \/ 09:00 ~ 18:00\n- 토,일 및 공휴일 \/ 휴무"}
,{"unique_id":2020980819,"facilityName":"도봉구청","address":"서울 도봉구 마들로 656","tel":"02-2091-2120","longitud":127.0472105,"latitude":37.66869141,"admin_id":"teamwemmy@gmail.com","category_main":"행정시설","category_sub":"구청","cityName":"서울시","borough":"도봉구","operating_hours":"<운영시간>\n- 월~금 \/ 09:00 ~ 18:00\n- 토,일 및 공휴일 \/ 휴무"}
,{"unique_id":9104201516,"facilityName":"종암동주민센터","address":"서울 성북구 종암로 98-8","tel":"02-2241-5520","longitud":127.0352174,"latitude":37.59901698,"admin_id":"teamwemmy@gmail.com","category_main":"행정시설","category_sub":"주민센터","cityName":"서울시","borough":"성북구","operating_hours":"<운영시간>\n- 월~금 \/ 09:00 ~ 18:00\n- 토,일 및 공휴일 \/ 휴무"}
,{"unique_id":4021545181,"facilityName":"장위1동주민센터","address":"서울 성북구 장위로 61","tel":"02-2241-5640","longitud":127.0437305,"latitude":37.61403904,"admin_id":"teamwemmy@gmail.com","category_main":"행정시설","category_sub":"주민센터","cityName":"서울시","borough":"성북구","operating_hours":"<운영시간>\n- 월~금 \/ 09:00 ~ 18:00\n- 토,일 및 공휴일 \/ 휴무"}
,{"unique_id":9514515939,"facilityName":"월곡1동주민센터","address":"서울 성북구 오패산로 96","tel":"02-2241-5560","longitud":127.0357756,"latitude":37.61055309,"admin_id":"teamwemmy@gmail.com","category_main":"행정시설","category_sub":"주민센터","cityName":"서울시","borough":"성북구","operating_hours":"<운영시간>\n- 월~금 \/ 09:00 ~ 18:00\n- 토,일 및 공휴일 \/ 휴무"}
,{"unique_id":6505247007,"facilityName":"석관동주민센터","address":"서울 성북구 화랑로 296","tel":"02-2241-5760","longitud":127.0613985,"latitude":37.61298602,"admin_id":"teamwemmy@gmail.com","category_main":"행정시설","category_sub":"주민센터","cityName":"서울시","borough":"성북구","operating_hours":"<운영시간>\n- 월~금 \/ 09:00 ~ 18:00\n- 토,일 및 공휴일 \/ 휴무"}
,{"unique_id":1458944812,"facilityName":"월곡2동주민센터","address":"서울 성북구 화랑로 152","tel":"02-2241-5600","longitud":127.0478865,"latitude":37.60579157,"admin_id":"teamwemmy@gmail.com","category_main":"행정시설","category_sub":"주민센터","cityName":"서울시","borough":"성북구","operating_hours":"<운영시간>\n- 월~금 \/ 09:00 ~ 18:00\n- 토,일 및 공휴일 \/ 휴무"}
,{"unique_id":2736565043,"facilityName":"길음2동주민센터","address":"서울 성북구 삼양로2길 70","tel":"02-2241-5480","longitud":127.0273116,"latitude":37.60669551,"admin_id":"teamwemmy@gmail.com","category_main":"행정시설","category_sub":"주민센터","cityName":"서울시","borough":"성북구","operating_hours":"<운영시간>\n- 월~금 \/ 09:00 ~ 18:00\n- 토,일 및 공휴일 \/ 휴무"}
,{"unique_id":5225153233,"facilityName":"길음1동주민센터","address":"서울 성북구 길음로 92","tel":"02-2241-5440","longitud":127.0195028,"latitude":37.61039832,"admin_id":"teamwemmy@gmail.com","category_main":"행정시설","category_sub":"주민센터","cityName":"서울시","borough":"성북구","operating_hours":"<운영시간>\n- 월~금 \/ 09:00 ~ 18:00\n- 토,일 및 공휴일 \/ 휴무"}
,{"unique_id":2685451043,"facilityName":"수유2동주민센터","address":"서울 강북구 한천로 1117","tel":"02-3778-4702","longitud":127.0199332,"latitude":37.64466097,"admin_id":"teamwemmy@gmail.com","category_main":"행정시설","category_sub":"주민센터","cityName":"서울시","borough":"강북구","operating_hours":"<운영시간>\n- 월~금 \/ 09:00 ~ 18:00\n- 토,일 및 공휴일 \/ 휴무"}
,{"unique_id":9404559200,"facilityName":"수유1동주민센터","address":"서울 강북구 삼양로 299","tel":"02-3778-4452","longitud":127.0176092,"latitude":37.63005817,"admin_id":"teamwemmy@gmail.com","category_main":"행정시설","category_sub":"주민센터","cityName":"서울시","borough":"강북구","operating_hours":"<운영시간>\n- 월~금 \/ 09:00 ~ 18:00\n- 토,일 및 공휴일 \/ 휴무"}
,{"unique_id":5431449146,"facilityName":"삼양동주민센터","address":"서울 강북구 솔매로 69","tel":"02-3778-4002","longitud":127.0197739,"latitude":37.62505195,"admin_id":"teamwemmy@gmail.com","category_main":"행정시설","category_sub":"주민센터","cityName":"서울시","borough":"강북구","operating_hours":"<운영시간>\n- 월~금 \/ 09:00 ~ 18:00\n- 토,일 및 공휴일 \/ 휴무"}
,{"unique_id":8097649832,"facilityName":"미아동주민센터","address":"서울 강북구 솔매로49길 14","tel":"02-3778-4052","longitud":127.0270608,"latitude":37.62708313,"admin_id":"teamwemmy@gmail.com","category_main":"행정시설","category_sub":"주민센터","cityName":"서울시","borough":"강북구","operating_hours":"<운영시간>\n- 월~금 \/ 09:00 ~ 18:00\n- 토,일 및 공휴일 \/ 휴무"}
,{"unique_id":6311593766,"facilityName":"송천동주민센터","address":"서울 강북구 솔샘로 284","tel":"02-3778-4152","longitud":127.023868,"latitude":37.6183082,"admin_id":"teamwemmy@gmail.com","category_main":"행정시설","category_sub":"주민센터","cityName":"서울시","borough":"강북구","operating_hours":"<운영시간>\n- 월~금 \/ 09:00 ~ 18:00\n- 토,일 및 공휴일 \/ 휴무"}
,{"unique_id":6037110828,"facilityName":"송중동주민센터","address":"서울 강북구 오패산로 162","tel":"02-3778-4102","longitud":127.0337938,"latitude":37.61612899,"admin_id":"teamwemmy@gmail.com","category_main":"행정시설","category_sub":"주민센터","cityName":"서울시","borough":"강북구","operating_hours":"<운영시간>\n- 월~금 \/ 09:00 ~ 18:00\n- 토,일 및 공휴일 \/ 휴무"}
,{"unique_id":8757312860,"facilityName":"우이동주민센터","address":"서울 강북구 삼양로139길 49","tel":"02-3778-4902","longitud":127.0118979,"latitude":37.64793082,"admin_id":"teamwemmy@gmail.com","category_main":"행정시설","category_sub":"주민센터","cityName":"서울시","borough":"강북구","operating_hours":"<운영시간>\n- 월~금 \/ 09:00 ~ 18:00\n- 토,일 및 공휴일 \/ 휴무"}
,{"unique_id":8343716106,"facilityName":"번1동주민센터","address":"서울 강북구 덕릉로41길 74","tel":"02-3778-4252","longitud":127.0288457,"latitude":37.63789093,"admin_id":"teamwemmy@gmail.com","category_main":"행정시설","category_sub":"주민센터","cityName":"서울시","borough":"강북구","operating_hours":"<운영시간>\n- 월~금 \/ 09:00 ~ 18:00\n- 토,일 및 공휴일 \/ 휴무"}
,{"unique_id":1276884528,"facilityName":"번3동주민센터","address":"서울 강북구 한천로105길 21","tel":"02-3778-4352","longitud":127.0466079,"latitude":37.62584808,"admin_id":"teamwemmy@gmail.com","category_main":"행정시설","category_sub":"주민센터","cityName":"서울시","borough":"강북구","operating_hours":"<운영시간>\n- 월~금 \/ 09:00 ~ 18:00\n- 토,일 및 공휴일 \/ 휴무"}
,{"unique_id":4331836828,"facilityName":"삼각산동주민센터","address":"서울 강북구 삼양로19길 34","tel":"02-3778-4202","longitud":127.0207375,"latitude":37.61514723,"admin_id":"teamwemmy@gmail.com","category_main":"행정시설","category_sub":"주민센터","cityName":"서울시","borough":"강북구","operating_hours":"<운영시간>\n- 월~금 \/ 09:00 ~ 18:00\n- 토,일 및 공휴일 \/ 휴무"}
,{"unique_id":2602636232,"facilityName":"번2동주민센터","address":"서울 강북구 한천로 897","tel":"02-3778-4302","longitud":127.0387882,"latitude":37.63233801,"admin_id":"teamwemmy@gmail.com","category_main":"행정시설","category_sub":"주민센터","cityName":"서울시","borough":"강북구","operating_hours":"<운영시간>\n- 월~금 \/ 09:00 ~ 18:00\n- 토,일 및 공휴일 \/ 휴무"}
,{"unique_id":1866595650,"facilityName":"인수동주민센터","address":"서울 강북구 인수봉로 255","tel":"02-3778-4952","longitud":127.0106324,"latitude":37.64143305,"admin_id":"teamwemmy@gmail.com","category_main":"행정시설","category_sub":"주민센터","cityName":"서울시","borough":"강북구","operating_hours":"<운영시간>\n- 월~금 \/ 09:00 ~ 18:00\n- 토,일 및 공휴일 \/ 휴무"}
,{"unique_id":4629190686,"facilityName":"창2동주민센터","address":"서울 도봉구 덕릉로59길 73-3","tel":"02-2091-5119","longitud":127.0356566,"latitude":37.64137768,"admin_id":"teamwemmy@gmail.com","category_main":"행정시설","category_sub":"주민센터","cityName":"서울시","borough":"도봉구","operating_hours":"<운영시간>\n- 월~금 \/ 09:00 ~ 18:00\n- 토,일 및 공휴일 \/ 휴무"}
,{"unique_id":3164420287,"facilityName":"쌍문1동주민센터","address":"서울 도봉구 노해로 147","tel":"02-2091-5111","longitud":127.0260757,"latitude":37.64799612,"admin_id":"teamwemmy@gmail.com","category_main":"행정시설","category_sub":"주민센터","cityName":"서울시","borough":"도봉구","operating_hours":"<운영시간>\n- 월~금 \/ 09:00 ~ 18:00\n- 토,일 및 공휴일 \/ 휴무"}
,{"unique_id":7766512491,"facilityName":"방학2동주민센터","address":"서울 도봉구 시루봉로 226","tel":"02-2091-5116","longitud":127.0349826,"latitude":37.66824878,"admin_id":"teamwemmy@gmail.com","category_main":"행정시설","category_sub":"주민센터","cityName":"서울시","borough":"도봉구","operating_hours":"<운영시간>\n- 월~금 \/ 09:00 ~ 18:00\n- 토,일 및 공휴일 \/ 휴무"}
,{"unique_id":5301950944,"facilityName":"창5동주민센터","address":"서울 도봉구 도봉로136나길 20","tel":"02-2091-5122","longitud":127.0435853,"latitude":37.65630431,"admin_id":"teamwemmy@gmail.com","category_main":"행정시설","category_sub":"주민센터","cityName":"서울시","borough":"도봉구","operating_hours":"<운영시간>\n- 월~금 \/ 09:00 ~ 18:00\n- 토,일 및 공휴일 \/ 휴무"}
,{"unique_id":3193276011,"facilityName":"쌍문2동주민센터","address":"서울 도봉구 도봉로137길 21","tel":"02-2091-5112","longitud":127.0397114,"latitude":37.6599006,"admin_id":"teamwemmy@gmail.com","category_main":"행정시설","category_sub":"주민센터","cityName":"서울시","borough":"도봉구","operating_hours":"<운영시간>\n- 월~금 \/ 09:00 ~ 18:00\n- 토,일 및 공휴일 \/ 휴무"}
,{"unique_id":1212702695,"facilityName":"도봉1동주민센터","address":"서울 도봉구 도봉로169나길 22","tel":"02-2091-5123","longitud":127.0434215,"latitude":37.67867932,"admin_id":"teamwemmy@gmail.com","category_main":"행정시설","category_sub":"주민센터","cityName":"서울시","borough":"도봉구","operating_hours":"<운영시간>\n- 월~금 \/ 09:00 ~ 18:00\n- 토,일 및 공휴일 \/ 휴무"}
,{"unique_id":6794728003,"facilityName":"방학3동주민센터","address":"서울 도봉구 시루봉로 94","tel":"02-2091-5117","longitud":127.0280335,"latitude":37.65915794,"admin_id":"teamwemmy@gmail.com","category_main":"행정시설","category_sub":"주민센터","cityName":"서울시","borough":"도봉구","operating_hours":"<운영시간>\n- 월~금 \/ 09:00 ~ 18:00\n- 토,일 및 공휴일 \/ 휴무"}
,{"unique_id":2407598864,"facilityName":"방학1동주민센터","address":"서울 도봉구 방학로2길 27","tel":"02-2091-5115","longitud":127.0406794,"latitude":37.66423579,"admin_id":"teamwemmy@gmail.com","category_main":"행정시설","category_sub":"주민센터","cityName":"서울시","borough":"도봉구","operating_hours":"<운영시간>\n- 월~금 \/ 09:00 ~ 18:00\n- 토,일 및 공휴일 \/ 휴무"}
,{"unique_id":5198232354,"facilityName":"창3동주민센터","address":"서울 도봉구 덕릉로62길 89","tel":"02-2091-5120","longitud":127.0429402,"latitude":37.63814072,"admin_id":"teamwemmy@gmail.com","category_main":"행정시설","category_sub":"주민센터","cityName":"서울시","borough":"도봉구","operating_hours":"<운영시간>\n- 월~금 \/ 09:00 ~ 18:00\n- 토,일 및 공휴일 \/ 휴무"}
,{"unique_id":9572499525,"facilityName":"쌍문3동주민센터","address":"서울 도봉구 노해로44길 9","tel":"02-2091-5113","longitud":127.0279344,"latitude":37.64896605,"admin_id":"teamwemmy@gmail.com","category_main":"행정시설","category_sub":"주민센터","cityName":"서울시","borough":"도봉구","operating_hours":"<운영시간>\n- 월~금 \/ 09:00 ~ 18:00\n- 토,일 및 공휴일 \/ 휴무"}
,{"unique_id":5853015814,"facilityName":"도봉2동주민센터","address":"서울 도봉구 마들로 668","tel":"02-2091-5124","longitud":127.0465492,"latitude":37.66971519,"admin_id":"teamwemmy@gmail.com","category_main":"행정시설","category_sub":"주민센터","cityName":"서울시","borough":"도봉구","operating_hours":"<운영시간>\n- 월~금 \/ 09:00 ~ 18:00\n- 토,일 및 공휴일 \/ 휴무"}
,{"unique_id":8925139287,"facilityName":"창4동주민센터","address":"서울 도봉구 노해로 390","tel":"02-2091-5121","longitud":127.0515493,"latitude":37.65222866,"admin_id":"teamwemmy@gmail.com","category_main":"행정시설","category_sub":"주민센터","cityName":"서울시","borough":"도봉구","operating_hours":"<운영시간>\n- 월~금 \/ 09:00 ~ 18:00\n- 토,일 및 공휴일 \/ 휴무"}
,{"unique_id":4681302980,"facilityName":"쌍문4동주민센터","address":"서울 도봉구 시루봉로 62-7","tel":"02-2091-5114","longitud":127.0284268,"latitude":37.65646932,"admin_id":"teamwemmy@gmail.com","category_main":"행정시설","category_sub":"주민센터","cityName":"서울시","borough":"도봉구","operating_hours":"<운영시간>\n- 월~금 \/ 09:00 ~ 18:00\n- 토,일 및 공휴일 \/ 휴무"}
,{"unique_id":2872052353,"facilityName":"상계8동주민센터","address":"서울 노원구 동일로227길 97","tel":"02-2116-2894","longitud":127.0515707,"latitude":37.66675067,"admin_id":"teamwemmy@gmail.com","category_main":"행정시설","category_sub":"주민센터","cityName":"서울시","borough":"노원구","operating_hours":"<운영시간>\n- 월~금 \/ 09:00 ~ 18:00\n- 토,일 및 공휴일 \/ 휴무"}
,{"unique_id":9809794970,"facilityName":"상계2동주민센터","address":"서울 노원구 상계로 118","tel":"02-2116-2774","longitud":127.0678858,"latitude":37.65747582,"admin_id":"teamwemmy@gmail.com","category_main":"행정시설","category_sub":"주민센터","cityName":"서울시","borough":"노원구","operating_hours":"<운영시간>\n- 월~금 \/ 09:00 ~ 18:00\n- 토,일 및 공휴일 \/ 휴무"}
,{"unique_id":7664285472,"facilityName":"공릉1동주민센터","address":"서울 노원구 동일로186길 3-24","tel":"02-2116-2491","longitud":127.0738462,"latitude":37.62482147,"admin_id":"teamwemmy@gmail.com","category_main":"행정시설","category_sub":"주민센터","cityName":"서울시","borough":"노원구","operating_hours":"<운영시간>\n- 월~금 \/ 09:00 ~ 18:00\n- 토,일 및 공휴일 \/ 휴무"}
,{"unique_id":4084936385,"facilityName":"상계3동4동주민센터","address":"서울 노원구 덕릉로 859","tel":"02-2116-2797","longitud":127.0832317,"latitude":37.6729133,"admin_id":"teamwemmy@gmail.com","category_main":"행정시설","category_sub":"주민센터","cityName":"서울시","borough":"노원구","operating_hours":"<운영시간>\n- 월~금 \/ 09:00 ~ 18:00\n- 토,일 및 공휴일 \/ 휴무"}
,{"unique_id":2581704027,"facilityName":"상계5동주민센터","address":"서울 노원구 한글비석로 434","tel":"02-2116-2832","longitud":127.0694072,"latitude":37.66296822,"admin_id":"teamwemmy@gmail.com","category_main":"행정시설","category_sub":"주민센터","cityName":"서울시","borough":"노원구","operating_hours":"<운영시간>\n- 월~금 \/ 09:00 ~ 18:00\n- 토,일 및 공휴일 \/ 휴무"}
,{"unique_id":8012908371,"facilityName":"공릉2동주민센터","address":"서울 노원구 노원로1길 68","tel":"02-2116-2529","longitud":127.0832965,"latitude":37.62130854,"admin_id":"teamwemmy@gmail.com","category_main":"행정시설","category_sub":"주민센터","cityName":"서울시","borough":"노원구","operating_hours":"<운영시간>\n- 월~금 \/ 09:00 ~ 18:00\n- 토,일 및 공휴일 \/ 휴무"}
,{"unique_id":4248580000,"facilityName":"월계2동주민센터","address":"서울 노원구 초안산로5길 28","tel":"02-2116-2439","longitud":127.0507426,"latitude":37.63248845,"admin_id":"teamwemmy@gmail.com","category_main":"행정시설","category_sub":"주민센터","cityName":"서울시","borough":"노원구","operating_hours":"<운영시간>\n- 월~금 \/ 09:00 ~ 18:00\n- 토,일 및 공휴일 \/ 휴무"}
,{"unique_id":2838622276,"facilityName":"월계1동주민센터","address":"서울 노원구 석계로 59","tel":"02-2116-2414","longitud":127.0630013,"latitude":37.61989035,"admin_id":"teamwemmy@gmail.com","category_main":"행정시설","category_sub":"주민센터","cityName":"서울시","borough":"노원구","operating_hours":"<운영시간>\n- 월~금 \/ 09:00 ~ 18:00\n- 토,일 및 공휴일 \/ 휴무"}
,{"unique_id":9266773702,"facilityName":"상계6동7동주민센터","address":"서울 노원구 노원로 429","tel":"02-2116-2861","longitud":127.0669655,"latitude":37.65488602,"admin_id":"teamwemmy@gmail.com","category_main":"행정시설","category_sub":"주민센터","cityName":"서울시","borough":"노원구","operating_hours":"<운영시간>\n- 월~금 \/ 09:00 ~ 18:00\n- 토,일 및 공휴일 \/ 휴무"}
,{"unique_id":7530777999,"facilityName":"중계1동주민센터","address":"서울 노원구 한글비석로 279","tel":"02-2116-2655","longitud":127.0775022,"latitude":37.65254783,"admin_id":"teamwemmy@gmail.com","category_main":"행정시설","category_sub":"주민센터","cityName":"서울시","borough":"노원구","operating_hours":"<운영시간>\n- 월~금 \/ 09:00 ~ 18:00\n- 토,일 및 공휴일 \/ 휴무"}
,{"unique_id":9374948875,"facilityName":"중계2,3동주민센터","address":"서울 노원구 노원로17길 56","tel":"02-2116-2675","longitud":127.0687352,"latitude":37.64216673,"admin_id":"teamwemmy@gmail.com","category_main":"행정시설","category_sub":"주민센터","cityName":"서울시","borough":"노원구","operating_hours":"<운영시간>\n- 월~금 \/ 09:00 ~ 18:00\n- 토,일 및 공휴일 \/ 휴무"}
,{"unique_id":3040081950,"facilityName":"상계10동주민센터","address":"서울 노원구 노원로 530","tel":"02-2116-2955","longitud":127.0602754,"latitude":37.66126138,"admin_id":"teamwemmy@gmail.com","category_main":"행정시설","category_sub":"주민센터","cityName":"서울시","borough":"노원구","operating_hours":"<운영시간>\n- 월~금 \/ 09:00 ~ 18:00\n- 토,일 및 공휴일 \/ 휴무"}
,{"unique_id":1106534581,"facilityName":"하계2동주민센터","address":"서울 노원구 공릉로55길 88","tel":"02-2116-2593","longitud":127.0679782,"latitude":37.63204009,"admin_id":"teamwemmy@gmail.com","category_main":"행정시설","category_sub":"주민센터","cityName":"서울시","borough":"노원구","operating_hours":"<운영시간>\n- 월~금 \/ 09:00 ~ 18:00\n- 토,일 및 공휴일 \/ 휴무"}
,{"unique_id":5181564583,"facilityName":"상계1동주민센터","address":"서울 노원구 동일로 1697","tel":"02-2116-2741","longitud":127.0549489,"latitude":37.67990705,"admin_id":"teamwemmy@gmail.com","category_main":"행정시설","category_sub":"주민센터","cityName":"서울시","borough":"노원구","operating_hours":"<운영시간>\n- 월~금 \/ 09:00 ~ 18:00\n- 토,일 및 공휴일 \/ 휴무"}
,{"unique_id":9136708512,"facilityName":"월계3동주민센터","address":"서울 노원구 마들로 57","tel":"02-2116-2466","longitud":127.0692594,"latitude":37.62101488,"admin_id":"teamwemmy@gmail.com","category_main":"행정시설","category_sub":"주민센터","cityName":"서울시","borough":"노원구","operating_hours":"<운영시간>\n- 월~금 \/ 09:00 ~ 18:00\n- 토,일 및 공휴일 \/ 휴무"}
,{"unique_id":5798277625,"facilityName":"역촌동주민센터","address":"서울 은평구 연서로 59","tel":"02-351-5302","longitud":126.9151233,"latitude":37.60439766,"admin_id":"teamwemmy@gmail.com","category_main":"행정시설","category_sub":"주민센터","cityName":"서울시","borough":"은평구","operating_hours":"<운영시간>\n- 월~금 \/ 09:00 ~ 18:00\n- 토,일 및 공휴일 \/ 휴무"}
,{"unique_id":3900230064,"facilityName":"갈현1동주민센터","address":"서울 은평구 갈현로 301","tel":"02-351-5092","longitud":126.9167417,"latitude":37.6236223,"admin_id":"teamwemmy@gmail.com","category_main":"행정시설","category_sub":"주민센터","cityName":"서울시","borough":"은평구","operating_hours":"<운영시간>\n- 월~금 \/ 09:00 ~ 18:00\n- 토,일 및 공휴일 \/ 휴무"}
,{"unique_id":8332482443,"facilityName":"응암1동주민센터","address":"서울 은평구 백련산로 179","tel":"02-351-5212","longitud":126.9267869,"latitude":37.60069699,"admin_id":"teamwemmy@gmail.com","category_main":"행정시설","category_sub":"주민센터","cityName":"서울시","borough":"은평구","operating_hours":"<운영시간>\n- 월~금 \/ 09:00 ~ 18:00\n- 토,일 및 공휴일 \/ 휴무"}
,{"unique_id":5518142309,"facilityName":"대조동주민센터","address":"서울 은평구 연서로20길 24-3","tel":"02-351-5182","longitud":126.9208251,"latitude":37.61418996,"admin_id":"teamwemmy@gmail.com","category_main":"행정시설","category_sub":"주민센터","cityName":"서울시","borough":"은평구","operating_hours":"<운영시간>\n- 월~금 \/ 09:00 ~ 18:00\n- 토,일 및 공휴일 \/ 휴무"}
,{"unique_id":7649056615,"facilityName":"불광1동주민센터","address":"서울 은평구 진흥로15길 10","tel":"02-351-5032","longitud":126.9320869,"latitude":37.61035877,"admin_id":"teamwemmy@gmail.com","category_main":"행정시설","category_sub":"주민센터","cityName":"서울시","borough":"은평구","operating_hours":"<운영시간>\n- 월~금 \/ 09:00 ~ 18:00\n- 토,일 및 공휴일 \/ 휴무"}
,{"unique_id":9147232909,"facilityName":"갈현2동주민센터","address":"서울 은평구 연서로27길 31-6","tel":"02-351-5122","longitud":126.9158457,"latitude":37.61855451,"admin_id":"teamwemmy@gmail.com","category_main":"행정시설","category_sub":"주민센터","cityName":"서울시","borough":"은평구","operating_hours":"<운영시간>\n- 월~금 \/ 09:00 ~ 18:00\n- 토,일 및 공휴일 \/ 휴무"}
,{"unique_id":1801460522,"facilityName":"진관동주민센터","address":"서울 은평구 진관2로 31","tel":"02-351-5453","longitud":126.9210659,"latitude":37.63496688,"admin_id":"teamwemmy@gmail.com","category_main":"행정시설","category_sub":"주민센터","cityName":"서울시","borough":"은평구","operating_hours":"<운영시간>\n- 월~금 \/ 09:00 ~ 18:00\n- 토,일 및 공휴일 \/ 휴무"}
,{"unique_id":7032583626,"facilityName":"응암3동주민센터","address":"서울 은평구 불광천길 410-17","tel":"02-351-5272","longitud":126.9157349,"latitude":37.59224193,"admin_id":"teamwemmy@gmail.com","category_main":"행정시설","category_sub":"주민센터","cityName":"서울시","borough":"은평구","operating_hours":"<운영시간>\n- 월~금 \/ 09:00 ~ 18:00\n- 토,일 및 공휴일 \/ 휴무"}
,{"unique_id":9761842657,"facilityName":"수색동주민센터","address":"서울 은평구 수색로 280","tel":"02-351-5422","longitud":126.8936903,"latitude":37.58351874,"admin_id":"teamwemmy@gmail.com","category_main":"행정시설","category_sub":"주민센터","cityName":"서울시","borough":"은평구","operating_hours":"<운영시간>\n- 월~금 \/ 09:00 ~ 18:00\n- 토,일 및 공휴일 \/ 휴무"}
,{"unique_id":5922074237,"facilityName":"신사1동주민센터","address":"서울 은평구 은평로2길 2","tel":"02-351-5332","longitud":126.9117699,"latitude":37.59779274,"admin_id":"teamwemmy@gmail.com","category_main":"행정시설","category_sub":"주민센터","cityName":"서울시","borough":"은평구","operating_hours":"<운영시간>\n- 월~금 \/ 09:00 ~ 18:00\n- 토,일 및 공휴일 \/ 휴무"}
,{"unique_id":6226422105,"facilityName":"불광제2동주민센터","address":"서울 은평구 연서로41길 18","tel":"02-351-5062","longitud":126.9271604,"latitude":37.62639972,"admin_id":"teamwemmy@gmail.com","category_main":"행정시설","category_sub":"주민센터","cityName":"서울시","borough":"은평구","operating_hours":"<운영시간>\n- 월~금 \/ 09:00 ~ 18:00\n- 토,일 및 공휴일 \/ 휴무"}
,{"unique_id":7176886682,"facilityName":"신사2동주민센터","address":"서울 은평구 증산로15길 47","tel":"02-351-5362","longitud":126.9081964,"latitude":37.5902343,"admin_id":"teamwemmy@gmail.com","category_main":"행정시설","category_sub":"주민센터","cityName":"서울시","borough":"은평구","operating_hours":"<운영시간>\n- 월~금 \/ 09:00 ~ 18:00\n- 토,일 및 공휴일 \/ 휴무"}
,{"unique_id":8810917742,"facilityName":"마포구청","address":"서울 마포구 월드컵로 212","tel":"02-3153-8114","longitud":126.9019551,"latitude":37.56621419,"admin_id":"teamwemmy@gmail.com","category_main":"행정시설","category_sub":"구청","cityName":"서울시","borough":"마포구","operating_hours":"<운영시간>\n- 월~금 \/ 09:00 ~ 18:00\n- 토,일 및 공휴일 \/ 휴무"}
,{"unique_id":5813047386,"facilityName":"신촌동주민센터","address":"서울 서대문구 연세로2나길 47","tel":"02-330-8111","longitud":126.9395183,"latitude":37.55780608,"admin_id":"teamwemmy@gmail.com","category_main":"행정시설","category_sub":"주민센터","cityName":"서울시","borough":"서대문구","operating_hours":"<운영시간>\n- 월~금 \/ 09:00 ~ 18:00\n- 토,일 및 공휴일 \/ 휴무"}
,{"unique_id":4423849730,"facilityName":"북가좌2동주민센터","address":"서울 서대문구 응암로1길 10","tel":"02-330-8141","longitud":126.911205,"latitude":37.58150598,"admin_id":"teamwemmy@gmail.com","category_main":"행정시설","category_sub":"주민센터","cityName":"서울시","borough":"서대문구","operating_hours":"<운영시간>\n- 월~금 \/ 09:00 ~ 18:00\n- 토,일 및 공휴일 \/ 휴무"}
,{"unique_id":5474213200,"facilityName":"남가좌1동주민센터","address":"서울 서대문구 모래내로15길 37","tel":"02-330-8135","longitud":126.9197863,"latitude":37.57327343,"admin_id":"teamwemmy@gmail.com","category_main":"행정시설","category_sub":"주민센터","cityName":"서울시","borough":"서대문구","operating_hours":"<운영시간>\n- 월~금 \/ 09:00 ~ 18:00\n- 토,일 및 공휴일 \/ 휴무"}
,{"unique_id":5581343633,"facilityName":"남가좌2동주민센터","address":"서울 서대문구 증가로10길 28","tel":"02-330-8137","longitud":126.9238653,"latitude":37.57843343,"admin_id":"teamwemmy@gmail.com","category_main":"행정시설","category_sub":"주민센터","cityName":"서울시","borough":"서대문구","operating_hours":"<운영시간>\n- 월~금 \/ 09:00 ~ 18:00\n- 토,일 및 공휴일 \/ 휴무"}
,{"unique_id":7639889034,"facilityName":"북가좌1동주민센터","address":"서울 서대문구 수색로 100-55","tel":"02-330-8139","longitud":126.9101857,"latitude":37.57427924,"admin_id":"teamwemmy@gmail.com","category_main":"행정시설","category_sub":"주민센터","cityName":"서울시","borough":"서대문구","operating_hours":"<운영시간>\n- 월~금 \/ 09:00 ~ 18:00\n- 토,일 및 공휴일 \/ 휴무"}
,{"unique_id":5762606463,"facilityName":"영등포구청","address":"서울 영등포구 당산로 123","tel":"02-2670-3114","longitud":126.8962717,"latitude":37.52636177,"admin_id":"teamwemmy@gmail.com","category_main":"행정시설","category_sub":"구청","cityName":"서울시","borough":"영등포구","operating_hours":"<운영시간>\n- 월~금 \/ 09:00 ~ 18:00\n- 토,일 및 공휴일 \/ 휴무"}
,{"unique_id":7977799054,"facilityName":"영등포구청 별관","address":"서울 영등포구 선유동1로 80","tel":"02-2670-3114","longitud":126.8945059,"latitude":37.52863974,"admin_id":"teamwemmy@gmail.com","category_main":"행정시설","category_sub":"구청","cityName":"서울시","borough":"영등포구","operating_hours":"<운영시간>\n- 월~금 \/ 09:00 ~ 18:00\n- 토,일 및 공휴일 \/ 휴무"}
,{"unique_id":1808910871,"facilityName":"서교동주민센터","address":"서울 마포구 동교로15길 7","tel":"02-3153-6740","longitud":126.9146111,"latitude":37.55509491,"admin_id":"teamwemmy@gmail.com","category_main":"행정시설","category_sub":"주민센터","cityName":"서울시","borough":"마포구","operating_hours":"<운영시간>\n- 월~금 \/ 09:00 ~ 18:00\n- 토,일 및 공휴일 \/ 휴무"}
,{"unique_id":7493248460,"facilityName":"연남동주민센터","address":"서울 마포구 성미산로29길 17-9","tel":"02-3153-6860","longitud":126.9220209,"latitude":37.56447671,"admin_id":"teamwemmy@gmail.com","category_main":"행정시설","category_sub":"주민센터","cityName":"서울시","borough":"마포구","operating_hours":"<운영시간>\n- 월~금 \/ 09:00 ~ 18:00\n- 토,일 및 공휴일 \/ 휴무"}
,{"unique_id":8841872371,"facilityName":"합정동주민센터","address":"서울 마포구 월드컵로5길 11","tel":"02-3153-6770","longitud":126.9117564,"latitude":37.55166181,"admin_id":"teamwemmy@gmail.com","category_main":"행정시설","category_sub":"주민센터","cityName":"서울시","borough":"마포구","operating_hours":"<운영시간>\n- 월~금 \/ 09:00 ~ 18:00\n- 토,일 및 공휴일 \/ 휴무"}
,{"unique_id":3099194329,"facilityName":"도화동주민센터","address":"서울 마포구 도화길 37","tel":"02-3153-6560","longitud":126.9498781,"latitude":37.54152449,"admin_id":"teamwemmy@gmail.com","category_main":"행정시설","category_sub":"주민센터","cityName":"서울시","borough":"마포구","operating_hours":"<운영시간>\n- 월~금 \/ 09:00 ~ 18:00\n- 토,일 및 공휴일 \/ 휴무"}
,{"unique_id":3086322487,"facilityName":"대흥동주민센터","address":"서울 마포구 신촌로26길 10","tel":"02-3153-6620","longitud":126.9423809,"latitude":37.55584694,"admin_id":"teamwemmy@gmail.com","category_main":"행정시설","category_sub":"주민센터","cityName":"서울시","borough":"마포구","operating_hours":"<운영시간>\n- 월~금 \/ 09:00 ~ 18:00\n- 토,일 및 공휴일 \/ 휴무"}
,{"unique_id":4422010893,"facilityName":"아현동주민센터","address":"서울 마포구 마포대로7길 18","tel":"02-3153-6530","longitud":126.9521964,"latitude":37.54705758,"admin_id":"teamwemmy@gmail.com","category_main":"행정시설","category_sub":"주민센터","cityName":"서울시","borough":"마포구","operating_hours":"<운영시간>\n- 월~금 \/ 09:00 ~ 18:00\n- 토,일 및 공휴일 \/ 휴무"}
,{"unique_id":1103649184,"facilityName":"상암동주민센터","address":"서울 마포구 매봉산로2길 16","tel":"02-3153-6950","longitud":126.8946894,"latitude":37.57832091,"admin_id":"teamwemmy@gmail.com","category_main":"행정시설","category_sub":"주민센터","cityName":"서울시","borough":"마포구","operating_hours":"<운영시간>\n- 월~금 \/ 09:00 ~ 18:00\n- 토,일 및 공휴일 \/ 휴무"}
,{"unique_id":5960342017,"facilityName":"망원2동주민센터","address":"서울 마포구 방울내로7길 11","tel":"02-3153-6830","longitud":126.9023251,"latitude":37.56031117,"admin_id":"teamwemmy@gmail.com","category_main":"행정시설","category_sub":"주민센터","cityName":"서울시","borough":"마포구","operating_hours":"<운영시간>\n- 월~금 \/ 09:00 ~ 18:00\n- 토,일 및 공휴일 \/ 휴무"}
,{"unique_id":3310999029,"facilityName":"용강동주민센터","address":"서울 마포구 토정로31길 31","tel":"02-3153-6590","longitud":126.942776,"latitude":37.54227449,"admin_id":"teamwemmy@gmail.com","category_main":"행정시설","category_sub":"주민센터","cityName":"서울시","borough":"마포구","operating_hours":"<운영시간>\n- 월~금 \/ 09:00 ~ 18:00\n- 토,일 및 공휴일 \/ 휴무"}
,{"unique_id":4830335840,"facilityName":"망원1동주민센터","address":"서울 마포구 포은로6길 10","tel":"02-3153-6800","longitud":126.9056042,"latitude":37.55559622,"admin_id":"teamwemmy@gmail.com","category_main":"행정시설","category_sub":"주민센터","cityName":"서울시","borough":"마포구","operating_hours":"<운영시간>\n- 월~금 \/ 09:00 ~ 18:00\n- 토,일 및 공휴일 \/ 휴무"}
,{"unique_id":3446855383,"facilityName":"성산2동주민센터","address":"서울 마포구 월드컵북로30길 22","tel":"02-3153-6920","longitud":126.90897,"latitude":37.56861375,"admin_id":"teamwemmy@gmail.com","category_main":"행정시설","category_sub":"주민센터","cityName":"서울시","borough":"마포구","operating_hours":"<운영시간>\n- 월~금 \/ 09:00 ~ 18:00\n- 토,일 및 공휴일 \/ 휴무"}
,{"unique_id":2708809040,"facilityName":"공덕동주민센터","address":"서울 마포구 만리재옛길 84","tel":"02-3153-6500","longitud":126.9600345,"latitude":37.55017435,"admin_id":"teamwemmy@gmail.com","category_main":"행정시설","category_sub":"주민센터","cityName":"서울시","borough":"마포구","operating_hours":"<운영시간>\n- 월~금 \/ 09:00 ~ 18:00\n- 토,일 및 공휴일 \/ 휴무"}
,{"unique_id":8045561270,"facilityName":"서강동주민센터","address":"서울 마포구 독막로 165","tel":"02-3153-6710","longitud":126.9320306,"latitude":37.54774687,"admin_id":"teamwemmy@gmail.com","category_main":"행정시설","category_sub":"주민센터","cityName":"서울시","borough":"마포구","operating_hours":"<운영시간>\n- 월~금 \/ 09:00 ~ 18:00\n- 토,일 및 공휴일 \/ 휴무"}
,{"unique_id":6598307680,"facilityName":"염리동주민센터","address":"서울 마포구 숭문길 14","tel":"02-3153-6650","longitud":126.9456557,"latitude":37.54706196,"admin_id":"teamwemmy@gmail.com","category_main":"행정시설","category_sub":"주민센터","cityName":"서울시","borough":"마포구","operating_hours":"<운영시간>\n- 월~금 \/ 09:00 ~ 18:00\n- 토,일 및 공휴일 \/ 휴무"}
,{"unique_id":4417207017,"facilityName":"성산1동주민센터","address":"서울 마포구 성산로4길 15","tel":"02-3153-6890","longitud":126.9078898,"latitude":37.56338624,"admin_id":"teamwemmy@gmail.com","category_main":"행정시설","category_sub":"주민센터","cityName":"서울시","borough":"마포구","operating_hours":"<운영시간>\n- 월~금 \/ 09:00 ~ 18:00\n- 토,일 및 공휴일 \/ 휴무"}
,{"unique_id":6883337763,"facilityName":"강서구청","address":"서울 강서구 화곡로 302","tel":"02-2600-6114","longitud":126.8495338,"latitude":37.55096462,"admin_id":"teamwemmy@gmail.com","category_main":"행정시설","category_sub":"구청","cityName":"서울시","borough":"강서구","operating_hours":"<운영시간>\n- 월~금 \/ 09:00 ~ 18:00\n- 토,일 및 공휴일 \/ 휴무"}
,{"unique_id":2444929178,"facilityName":"양천구청","address":"서울 양천구 목동동로 105","tel":"02-2620-3114","longitud":126.8665014,"latitude":37.51698848,"admin_id":"teamwemmy@gmail.com","category_main":"행정시설","category_sub":"구청","cityName":"서울시","borough":"양천구","operating_hours":"<운영시간>\n- 월~금 \/ 09:00 ~ 18:00\n- 토,일 및 공휴일 \/ 휴무"}
,{"unique_id":3785773684,"facilityName":"구로구청","address":"서울 구로구 가마산로 245","tel":"02-860-2114","longitud":126.8875053,"latitude":37.49543309,"admin_id":"teamwemmy@gmail.com","category_main":"행정시설","category_sub":"구청","cityName":"서울시","borough":"구로구","operating_hours":"<운영시간>\n- 월~금 \/ 09:00 ~ 18:00\n- 토,일 및 공휴일 \/ 휴무"}
,{"unique_id":5280531966,"facilityName":"목2동주민센터","address":"서울 양천구 목동중앙본로 120","tel":"02-2620-3960","longitud":126.8717,"latitude":37.5461326,"admin_id":"teamwemmy@gmail.com","category_main":"행정시설","category_sub":"주민센터","cityName":"서울시","borough":"양천구","operating_hours":"<운영시간>\n- 월~금 \/ 09:00 ~ 18:00\n- 토,일 및 공휴일 \/ 휴무"}
,{"unique_id":4612658170,"facilityName":"목3동주민센터","address":"서울 양천구 목동중앙남로16나길 55","tel":"02-2620-3980","longitud":126.8644559,"latitude":37.54473336,"admin_id":"teamwemmy@gmail.com","category_main":"행정시설","category_sub":"주민센터","cityName":"서울시","borough":"양천구","operating_hours":"<운영시간>\n- 월~금 \/ 09:00 ~ 18:00\n- 토,일 및 공휴일 \/ 휴무"}
,{"unique_id":7140710636,"facilityName":"신정4동주민센터","address":"서울 양천구 오목로34길 5","tel":"02-2620-4250","longitud":126.8557409,"latitude":37.52455866,"admin_id":"teamwemmy@gmail.com","category_main":"행정시설","category_sub":"주민센터","cityName":"서울시","borough":"양천구","operating_hours":"<운영시간>\n- 월~금 \/ 09:00 ~ 18:00\n- 토,일 및 공휴일 \/ 휴무"}
,{"unique_id":3049285363,"facilityName":"신월5동주민센터","address":"서울 양천구 화곡로4길 10","tel":"02-2620-4130","longitud":126.8271871,"latitude":37.53856872,"admin_id":"teamwemmy@gmail.com","category_main":"행정시설","category_sub":"주민센터","cityName":"서울시","borough":"양천구","operating_hours":"<운영시간>\n- 월~금 \/ 09:00 ~ 18:00\n- 토,일 및 공휴일 \/ 휴무"}
,{"unique_id":7178820795,"facilityName":"신월1동주민센터","address":"서울 양천구 곰달래로1길 38","tel":"02-2620-4050","longitud":126.8315359,"latitude":37.5328014,"admin_id":"teamwemmy@gmail.com","category_main":"행정시설","category_sub":"주민센터","cityName":"서울시","borough":"양천구","operating_hours":"<운영시간>\n- 월~금 \/ 09:00 ~ 18:00\n- 토,일 및 공휴일 \/ 휴무"}
,{"unique_id":8845963386,"facilityName":"목4동주민센터","address":"서울 양천구 목동중앙로 25","tel":"02-2620-4000","longitud":126.8684085,"latitude":37.53246982,"admin_id":"teamwemmy@gmail.com","category_main":"행정시설","category_sub":"주민센터","cityName":"서울시","borough":"양천구","operating_hours":"<운영시간>\n- 월~금 \/ 09:00 ~ 18:00\n- 토,일 및 공휴일 \/ 휴무"}
,{"unique_id":8727617439,"facilityName":"신정2동주민센터","address":"서울 양천구 목동동로 154","tel":"02-2620-4210","longitud":126.8707009,"latitude":37.51922043,"admin_id":"teamwemmy@gmail.com","category_main":"행정시설","category_sub":"주민센터","cityName":"서울시","borough":"양천구","operating_hours":"<운영시간>\n- 월~금 \/ 09:00 ~ 18:00\n- 토,일 및 공휴일 \/ 휴무"}
,{"unique_id":2317514812,"facilityName":"신월2동주민센터","address":"서울 양천구 중앙로53길 47","tel":"02-2620-4070","longitud":126.8445812,"latitude":37.52498058,"admin_id":"teamwemmy@gmail.com","category_main":"행정시설","category_sub":"주민센터","cityName":"서울시","borough":"양천구","operating_hours":"<운영시간>\n- 월~금 \/ 09:00 ~ 18:00\n- 토,일 및 공휴일 \/ 휴무"}
,{"unique_id":2457436655,"facilityName":"신월3동주민센터","address":"서울 양천구 남부순환로54길 5","tel":"02-2620-4090","longitud":126.8290539,"latitude":37.53367361,"admin_id":"teamwemmy@gmail.com","category_main":"행정시설","category_sub":"주민센터","cityName":"서울시","borough":"양천구","operating_hours":"<운영시간>\n- 월~금 \/ 09:00 ~ 18:00\n- 토,일 및 공휴일 \/ 휴무"}
,{"unique_id":3878120041,"facilityName":"신월6동주민센터","address":"서울 양천구 남부순환로83길 53","tel":"02-2620-4150","longitud":126.8450843,"latitude":37.5180147,"admin_id":"teamwemmy@gmail.com","category_main":"행정시설","category_sub":"주민센터","cityName":"서울시","borough":"양천구","operating_hours":"<운영시간>\n- 월~금 \/ 09:00 ~ 18:00\n- 토,일 및 공휴일 \/ 휴무"}
,{"unique_id":9191960971,"facilityName":"목1동주민센터","address":"서울 양천구 목동서로 192","tel":"02-2620-3942","longitud":126.8711388,"latitude":37.53035368,"admin_id":"teamwemmy@gmail.com","category_main":"행정시설","category_sub":"주민센터","cityName":"서울시","borough":"양천구","operating_hours":"<운영시간>\n- 월~금 \/ 09:00 ~ 18:00\n- 토,일 및 공휴일 \/ 휴무"}
,{"unique_id":9142756323,"facilityName":"목5동주민센터","address":"서울 양천구 목동서로 41","tel":"02-2620-4020","longitud":126.8817175,"latitude":37.53717812,"admin_id":"teamwemmy@gmail.com","category_main":"행정시설","category_sub":"주민센터","cityName":"서울시","borough":"양천구","operating_hours":"<운영시간>\n- 월~금 \/ 09:00 ~ 18:00\n- 토,일 및 공휴일 \/ 휴무"}
,{"unique_id":9606859294,"facilityName":"신정3동주민센터","address":"서울 양천구 중앙로 209","tel":"02-2620-4230","longitud":126.8547976,"latitude":37.5151186,"admin_id":"teamwemmy@gmail.com","category_main":"행정시설","category_sub":"주민센터","cityName":"서울시","borough":"양천구","operating_hours":"<운영시간>\n- 월~금 \/ 09:00 ~ 18:00\n- 토,일 및 공휴일 \/ 휴무"}
,{"unique_id":8937950711,"facilityName":"신정1동주민센터","address":"서울 양천구 중앙로32길 1","tel":"02-2620-4190","longitud":126.8542718,"latitude":37.51853816,"admin_id":"teamwemmy@gmail.com","category_main":"행정시설","category_sub":"주민센터","cityName":"서울시","borough":"양천구","operating_hours":"<운영시간>\n- 월~금 \/ 09:00 ~ 18:00\n- 토,일 및 공휴일 \/ 휴무"}
,{"unique_id":7047259941,"facilityName":"신월4동주민센터","address":"서울 양천구 오목로5길 34","tel":"02-2620-4110","longitud":126.8400387,"latitude":37.52466457,"admin_id":"teamwemmy@gmail.com","category_main":"행정시설","category_sub":"주민센터","cityName":"서울시","borough":"양천구","operating_hours":"<운영시간>\n- 월~금 \/ 09:00 ~ 18:00\n- 토,일 및 공휴일 \/ 휴무"}
,{"unique_id":8837885589,"facilityName":"화곡1동주민센터","address":"서울 강서구 곰달래로 79","tel":"02-2600-7525","longitud":126.8415991,"latitude":37.53039164,"admin_id":"teamwemmy@gmail.com","category_main":"행정시설","category_sub":"주민센터","cityName":"서울시","borough":"강서구","operating_hours":"<운영시간>\n- 월~금 \/ 09:00 ~ 18:00\n- 토,일 및 공휴일 \/ 휴무"}
,{"unique_id":2513676902,"facilityName":"발산1동주민센터","address":"서울 강서구 강서로47길 54","tel":"02-2600-7895","longitud":126.8332647,"latitude":37.55309795,"admin_id":"teamwemmy@gmail.com","category_main":"행정시설","category_sub":"주민센터","cityName":"서울시","borough":"강서구","operating_hours":"<운영시간>\n- 월~금 \/ 09:00 ~ 18:00\n- 토,일 및 공휴일 \/ 휴무"}
,{"unique_id":1089900228,"facilityName":"공항동주민센터","address":"서울 강서구 송정로 45","tel":"02-2600-7935","longitud":126.8101091,"latitude":37.5588726,"admin_id":"teamwemmy@gmail.com","category_main":"행정시설","category_sub":"주민센터","cityName":"서울시","borough":"강서구","operating_hours":"<운영시간>\n- 월~금 \/ 09:00 ~ 18:00\n- 토,일 및 공휴일 \/ 휴무"}
,{"unique_id":5474476214,"facilityName":"화곡2동주민센터","address":"서울 강서구 곰달래로37길 13","tel":"02-2600-7555","longitud":126.854496,"latitude":37.53181559,"admin_id":"teamwemmy@gmail.com","category_main":"행정시설","category_sub":"주민센터","cityName":"서울시","borough":"강서구","operating_hours":"<운영시간>\n- 월~금 \/ 09:00 ~ 18:00\n- 토,일 및 공휴일 \/ 휴무"}
,{"unique_id":3178284166,"facilityName":"방화1동 주민센터","address":"서울 강서구 방화대로 330","tel":"02-2600-7975","longitud":126.8170529,"latitude":37.57034422,"admin_id":"teamwemmy@gmail.com","category_main":"행정시설","category_sub":"주민센터","cityName":"서울시","borough":"강서구","operating_hours":"<운영시간>\n- 월~금 \/ 09:00 ~ 18:00\n- 토,일 및 공휴일 \/ 휴무"}
,{"unique_id":1896648966,"facilityName":"등촌1동주민센터","address":"서울 강서구 공항대로53가길 55","tel":"02-2600-7343","longitud":126.8589219,"latitude":37.55584159,"admin_id":"teamwemmy@gmail.com","category_main":"행정시설","category_sub":"주민센터","cityName":"서울시","borough":"강서구","operating_hours":"<운영시간>\n- 월~금 \/ 09:00 ~ 18:00\n- 토,일 및 공휴일 \/ 휴무"}
,{"unique_id":5843454520,"facilityName":"등촌3동주민센터","address":"서울 강서구 화곡로63길 96","tel":"02-2600-7445","longitud":126.847922,"latitude":37.55888051,"admin_id":"teamwemmy@gmail.com","category_main":"행정시설","category_sub":"주민센터","cityName":"서울시","borough":"강서구","operating_hours":"<운영시간>\n- 월~금 \/ 09:00 ~ 18:00\n- 토,일 및 공휴일 \/ 휴무"}
,{"unique_id":6394749772,"facilityName":"염창동 주민센터","address":"서울 강서구 양천로67가길 63","tel":"02-2600-7335","longitud":126.8709853,"latitude":37.55373624,"admin_id":"teamwemmy@gmail.com","category_main":"행정시설","category_sub":"주민센터","cityName":"서울시","borough":"강서구","operating_hours":"<운영시간>\n- 월~금 \/ 09:00 ~ 18:00\n- 토,일 및 공휴일 \/ 휴무"}
,{"unique_id":7919582296,"facilityName":"화곡본동 주민센터","address":"서울 강서구 초록마을로5길 29","tel":"02-2600-7485","longitud":126.8476693,"latitude":37.54404616,"admin_id":"teamwemmy@gmail.com","category_main":"행정시설","category_sub":"주민센터","cityName":"서울시","borough":"강서구","operating_hours":"<운영시간>\n- 월~금 \/ 09:00 ~ 18:00\n- 토,일 및 공휴일 \/ 휴무"}
,{"unique_id":8167880647,"facilityName":"가양1동주민센터","address":"서울 강서구 허준로 30","tel":"02-2600-7785","longitud":126.8447287,"latitude":37.56949729,"admin_id":"teamwemmy@gmail.com","category_main":"행정시설","category_sub":"주민센터","cityName":"서울시","borough":"강서구","operating_hours":"<운영시간>\n- 월~금 \/ 09:00 ~ 18:00\n- 토,일 및 공휴일 \/ 휴무"}
,{"unique_id":7800945936,"facilityName":"가양3동주민센터","address":"서울 강서구 허준로 202","tel":"02-2600-7865","longitud":126.8605374,"latitude":37.56105848,"admin_id":"teamwemmy@gmail.com","category_main":"행정시설","category_sub":"주민센터","cityName":"서울시","borough":"강서구","operating_hours":"<운영시간>\n- 월~금 \/ 09:00 ~ 18:00\n- 토,일 및 공휴일 \/ 휴무"}
,{"unique_id":1480931605,"facilityName":"방화2동주민센터","address":"서울 강서구 개화동로21길 52","tel":"02-2600-5235","longitud":126.8057976,"latitude":37.571739,"admin_id":"teamwemmy@gmail.com","category_main":"행정시설","category_sub":"주민센터","cityName":"서울시","borough":"강서구","operating_hours":"<운영시간>\n- 월~금 \/ 09:00 ~ 18:00\n- 토,일 및 공휴일 \/ 휴무"}
,{"unique_id":7304206271,"facilityName":"화곡3동주민센터","address":"서울 강서구 강서로33가길 17","tel":"02-2600-7585","longitud":126.8384119,"latitude":37.54252739,"admin_id":"teamwemmy@gmail.com","category_main":"행정시설","category_sub":"주민센터","cityName":"서울시","borough":"강서구","operating_hours":"<운영시간>\n- 월~금 \/ 09:00 ~ 18:00\n- 토,일 및 공휴일 \/ 휴무"}
,{"unique_id":2133800961,"facilityName":"화곡4동주민센터","address":"서울 강서구 곰달래로57가길 26","tel":"02-2600-7635","longitud":126.8608717,"latitude":37.53462629,"admin_id":"teamwemmy@gmail.com","category_main":"행정시설","category_sub":"주민센터","cityName":"서울시","borough":"강서구","operating_hours":"<운영시간>\n- 월~금 \/ 09:00 ~ 18:00\n- 토,일 및 공휴일 \/ 휴무"}
,{"unique_id":4470399782,"facilityName":"우장산동주민센터","address":"서울 강서구 우현로 34","tel":"02-2600-7745","longitud":126.8417945,"latitude":37.54819745,"admin_id":"teamwemmy@gmail.com","category_main":"행정시설","category_sub":"주민센터","cityName":"서울시","borough":"강서구","operating_hours":"<운영시간>\n- 월~금 \/ 09:00 ~ 18:00\n- 토,일 및 공휴일 \/ 휴무"}
,{"unique_id":9054997503,"facilityName":"구로3동주민센터","address":"서울 구로구 디지털로31길 109","tel":"02-2620-7400","longitud":126.8903306,"latitude":37.4873483,"admin_id":"teamwemmy@gmail.com","category_main":"행정시설","category_sub":"주민센터","cityName":"서울시","borough":"구로구","operating_hours":"<운영시간>\n- 월~금 \/ 09:00 ~ 18:00\n- 토,일 및 공휴일 \/ 휴무"}
,{"unique_id":3031591887,"facilityName":"가리봉동주민센터","address":"서울 구로구 우마2길 35","tel":"02-2620-7700","longitud":126.8897181,"latitude":37.48253275,"admin_id":"teamwemmy@gmail.com","category_main":"행정시설","category_sub":"주민센터","cityName":"서울시","borough":"구로구","operating_hours":"<운영시간>\n- 월~금 \/ 09:00 ~ 18:00\n- 토,일 및 공휴일 \/ 휴무"}
,{"unique_id":4984997017,"facilityName":"개봉1동주민센터","address":"서울 구로구 경인로33길 51","tel":"02-2620-7150","longitud":126.8511464,"latitude":37.50026551,"admin_id":"teamwemmy@gmail.com","category_main":"행정시설","category_sub":"주민센터","cityName":"서울시","borough":"구로구","operating_hours":"<운영시간>\n- 월~금 \/ 09:00 ~ 18:00\n- 토,일 및 공휴일 \/ 휴무"}
,{"unique_id":6238510638,"facilityName":"오류1동주민센터","address":"서울 구로구 경인로27길 7","tel":"02-2620-7450","longitud":126.8451232,"latitude":37.49702856,"admin_id":"teamwemmy@gmail.com","category_main":"행정시설","category_sub":"주민센터","cityName":"서울시","borough":"구로구","operating_hours":"<운영시간>\n- 월~금 \/ 09:00 ~ 18:00\n- 토,일 및 공휴일 \/ 휴무"}
,{"unique_id":7969347891,"facilityName":"구로5동주민센터","address":"서울 구로구 구로중앙로28길 66","tel":"02-2620-7600","longitud":126.8893529,"latitude":37.50012367,"admin_id":"teamwemmy@gmail.com","category_main":"행정시설","category_sub":"주민센터","cityName":"서울시","borough":"구로구","operating_hours":"<운영시간>\n- 월~금 \/ 09:00 ~ 18:00\n- 토,일 및 공휴일 \/ 휴무"}
,{"unique_id":6352873640,"facilityName":"신도림동주민센터","address":"서울 구로구 신도림로 40","tel":"02-2620-7100","longitud":126.8806102,"latitude":37.50778091,"admin_id":"teamwemmy@gmail.com","category_main":"행정시설","category_sub":"주민센터","cityName":"서울시","borough":"구로구","operating_hours":"<운영시간>\n- 월~금 \/ 09:00 ~ 18:00\n- 토,일 및 공휴일 \/ 휴무"}
,{"unique_id":4749066897,"facilityName":"구로2동주민센터","address":"서울 구로구 구로동로 141","tel":"02-2620-7300","longitud":126.8834994,"latitude":37.49139269,"admin_id":"teamwemmy@gmail.com","category_main":"행정시설","category_sub":"주민센터","cityName":"서울시","borough":"구로구","operating_hours":"<운영시간>\n- 월~금 \/ 09:00 ~ 18:00\n- 토,일 및 공휴일 \/ 휴무"}
,{"unique_id":4548028041,"facilityName":"오류2동주민센터","address":"서울 구로구 오류로 45","tel":"02-2620-7550","longitud":126.8395045,"latitude":37.48885794,"admin_id":"teamwemmy@gmail.com","category_main":"행정시설","category_sub":"주민센터","cityName":"서울시","borough":"구로구","operating_hours":"<운영시간>\n- 월~금 \/ 09:00 ~ 18:00\n- 토,일 및 공휴일 \/ 휴무"}
,{"unique_id":9648665580,"facilityName":"개봉2동주민센터","address":"서울 구로구 개봉로16가길 17","tel":"02-2620-7250","longitud":126.856543,"latitude":37.49082964,"admin_id":"teamwemmy@gmail.com","category_main":"행정시설","category_sub":"주민센터","cityName":"서울시","borough":"구로구","operating_hours":"<운영시간>\n- 월~금 \/ 09:00 ~ 18:00\n- 토,일 및 공휴일 \/ 휴무"}
,{"unique_id":9594805183,"facilityName":"고척1동주민센터","address":"서울 구로구 중앙로3길 18-8","tel":"02-2620-7800","longitud":126.8627538,"latitude":37.50035164,"admin_id":"teamwemmy@gmail.com","category_main":"행정시설","category_sub":"주민센터","cityName":"서울시","borough":"구로구","operating_hours":"<운영시간>\n- 월~금 \/ 09:00 ~ 18:00\n- 토,일 및 공휴일 \/ 휴무"}
,{"unique_id":3270987330,"facilityName":"구로1동주민센터","address":"서울 구로구 구일로4길 57","tel":"02-2620-7200","longitud":126.8758053,"latitude":37.49301388,"admin_id":"teamwemmy@gmail.com","category_main":"행정시설","category_sub":"주민센터","cityName":"서울시","borough":"구로구","operating_hours":"<운영시간>\n- 월~금 \/ 09:00 ~ 18:00\n- 토,일 및 공휴일 \/ 휴무"}
,{"unique_id":2263422719,"facilityName":"항동주민센터","address":"서울 구로구 연동로 191-19","tel":"02-2620-7595","longitud":126.8224436,"latitude":37.47903328,"admin_id":"teamwemmy@gmail.com","category_main":"행정시설","category_sub":"주민센터","cityName":"서울시","borough":"구로구","operating_hours":"<운영시간>\n- 월~금 \/ 09:00 ~ 18:00\n- 토,일 및 공휴일 \/ 휴무"}
,{"unique_id":5866800577,"facilityName":"수궁동주민센터","address":"서울 구로구 오리로15길 32","tel":"02-2620-7650","longitud":126.8314786,"latitude":37.49388159,"admin_id":"teamwemmy@gmail.com","category_main":"행정시설","category_sub":"주민센터","cityName":"서울시","borough":"구로구","operating_hours":"<운영시간>\n- 월~금 \/ 09:00 ~ 18:00\n- 토,일 및 공휴일 \/ 휴무"}
,{"unique_id":8491664947,"facilityName":"개봉3동주민센터","address":"서울 구로구 개봉로3길 47-5","tel":"02-2620-7350","longitud":126.8538522,"latitude":37.48599694,"admin_id":"teamwemmy@gmail.com","category_main":"행정시설","category_sub":"주민센터","cityName":"서울시","borough":"구로구","operating_hours":"<운영시간>\n- 월~금 \/ 09:00 ~ 18:00\n- 토,일 및 공휴일 \/ 휴무"}
,{"unique_id":1528489966,"facilityName":"가산동주민센터","address":"서울 금천구 가산로 129","tel":"02-2627-2501","longitud":126.8917795,"latitude":37.47687632,"admin_id":"teamwemmy@gmail.com","category_main":"행정시설","category_sub":"주민센터","cityName":"서울시","borough":"금천구","operating_hours":"<운영시간>\n- 월~금 \/ 09:00 ~ 18:00\n- 토,일 및 공휴일 \/ 휴무"}
,{"unique_id":2761713552,"facilityName":"독산1동주민센터","address":"서울 금천구 시흥대로123길 11","tel":"02-2627-2503","longitud":126.8970434,"latitude":37.47022076,"admin_id":"teamwemmy@gmail.com","category_main":"행정시설","category_sub":"주민센터","cityName":"서울시","borough":"금천구","operating_hours":"<운영시간>\n- 월~금 \/ 09:00 ~ 18:00\n- 토,일 및 공휴일 \/ 휴무"}
,{"unique_id":8481734122,"facilityName":"독산3동주민센터","address":"서울 금천구 독산로 317","tel":"02-2627-2507","longitud":126.9031821,"latitude":37.47514907,"admin_id":"teamwemmy@gmail.com","category_main":"행정시설","category_sub":"주민센터","cityName":"서울시","borough":"금천구","operating_hours":"<운영시간>\n- 월~금 \/ 09:00 ~ 18:00\n- 토,일 및 공휴일 \/ 휴무"}
,{"unique_id":8840904262,"facilityName":"독산4동주민센터","address":"서울 금천구 독산로 232","tel":"02-2627-2509","longitud":126.902152,"latitude":37.46754729,"admin_id":"teamwemmy@gmail.com","category_main":"행정시설","category_sub":"주민센터","cityName":"서울시","borough":"금천구","operating_hours":"<운영시간>\n- 월~금 \/ 09:00 ~ 18:00\n- 토,일 및 공휴일 \/ 휴무"}
,{"unique_id":1268866918,"facilityName":"시흥5동주민센터","address":"서울 금천구 금하로24길 6","tel":"02-2627-2521","longitud":126.9083445,"latitude":37.45076821,"admin_id":"teamwemmy@gmail.com","category_main":"행정시설","category_sub":"주민센터","cityName":"서울시","borough":"금천구","operating_hours":"<운영시간>\n- 월~금 \/ 09:00 ~ 18:00\n- 토,일 및 공휴일 \/ 휴무"}
,{"unique_id":4067456487,"facilityName":"독산2동주민센터","address":"서울 금천구 독산로 179","tel":"02-2627-2505","longitud":126.9035367,"latitude":37.46316592,"admin_id":"teamwemmy@gmail.com","category_main":"행정시설","category_sub":"주민센터","cityName":"서울시","borough":"금천구","operating_hours":"<운영시간>\n- 월~금 \/ 09:00 ~ 18:00\n- 토,일 및 공휴일 \/ 휴무"}
,{"unique_id":7343528847,"facilityName":"시흥1동주민센터","address":"서울 금천구 시흥대로58길 36","tel":"02-2627-2513","longitud":126.9032507,"latitude":37.45353927,"admin_id":"teamwemmy@gmail.com","category_main":"행정시설","category_sub":"주민센터","cityName":"서울시","borough":"금천구","operating_hours":"<운영시간>\n- 월~금 \/ 09:00 ~ 18:00\n- 토,일 및 공휴일 \/ 휴무"}
,{"unique_id":4835031693,"facilityName":"시흥4동주민센터","address":"서울 금천구 독산로36길 14","tel":"02-2627-2519","longitud":126.9061869,"latitude":37.45898375,"admin_id":"teamwemmy@gmail.com","category_main":"행정시설","category_sub":"주민센터","cityName":"서울시","borough":"금천구","operating_hours":"<운영시간>\n- 월~금 \/ 09:00 ~ 18:00\n- 토,일 및 공휴일 \/ 휴무"}
,{"unique_id":3081965633,"facilityName":"시흥3동주민센터","address":"서울 금천구 시흥대로18길 40","tel":"02-2627-2517","longitud":126.9057809,"latitude":37.44027839,"admin_id":"teamwemmy@gmail.com","category_main":"행정시설","category_sub":"주민센터","cityName":"서울시","borough":"금천구","operating_hours":"<운영시간>\n- 월~금 \/ 09:00 ~ 18:00\n- 토,일 및 공휴일 \/ 휴무"}
,{"unique_id":9651054245,"facilityName":"시흥2동주민센터","address":"서울 금천구 금하로 764","tel":"02-2627-2515","longitud":126.9149053,"latitude":37.44955855,"admin_id":"teamwemmy@gmail.com","category_main":"행정시설","category_sub":"주민센터","cityName":"서울시","borough":"금천구","operating_hours":"<운영시간>\n- 월~금 \/ 09:00 ~ 18:00\n- 토,일 및 공휴일 \/ 휴무"}
,{"unique_id":1207328131,"facilityName":"독산1동주민센터 분소","address":"서울 금천구 한내로 69-17","tel":"02-2104-5751","longitud":126.8878102,"latitude":37.45793698,"admin_id":"teamwemmy@gmail.com","category_main":"행정시설","category_sub":"주민센터","cityName":"서울시","borough":"금천구","operating_hours":"<운영시간>\n- 월~금 \/ 09:00 ~ 18:00\n- 토,일 및 공휴일 \/ 휴무"}
,{"unique_id":4731331155,"facilityName":"금천구청","address":"서울 금천구 시흥대로73길 70","tel":"02-2627-2114","longitud":126.8954568,"latitude":37.45684115,"admin_id":"teamwemmy@gmail.com","category_main":"행정시설","category_sub":"구청","cityName":"서울시","borough":"금천구","operating_hours":"<운영시간>\n- 월~금 \/ 09:00 ~ 18:00\n- 토,일 및 공휴일 \/ 휴무"}
,{"unique_id":3886048839,"facilityName":"영등포동 주민센터","address":"서울 영등포구 양산로 232","tel":"02-2670-1450","longitud":126.9088963,"latitude":37.52224469,"admin_id":"teamwemmy@gmail.com","category_main":"행정시설","category_sub":"주민센터","cityName":"서울시","borough":"영등포구","operating_hours":"<운영시간>\n- 월~금 \/ 09:00 ~ 18:00\n- 토,일 및 공휴일 \/ 휴무"}
,{"unique_id":9181975605,"facilityName":"여의동주민센터","address":"서울 영등포구 국제금융로 124","tel":"02-2670-1451","longitud":126.9346075,"latitude":37.51760444,"admin_id":"teamwemmy@gmail.com","category_main":"행정시설","category_sub":"주민센터","cityName":"서울시","borough":"영등포구","operating_hours":"<운영시간>\n- 월~금 \/ 09:00 ~ 18:00\n- 토,일 및 공휴일 \/ 휴무"}
,{"unique_id":3586421758,"facilityName":"대림3동주민센터","address":"서울 영등포구 가마산로 364","tel":"02-2670-1444","longitud":126.8990357,"latitude":37.50094595,"admin_id":"teamwemmy@gmail.com","category_main":"행정시설","category_sub":"주민센터","cityName":"서울시","borough":"영등포구","operating_hours":"<운영시간>\n- 월~금 \/ 09:00 ~ 18:00\n- 토,일 및 공휴일 \/ 휴무"}
,{"unique_id":9306619924,"facilityName":"당산2동주민센터","address":"서울 영등포구 당산로41가길 7","tel":"02-2670-1453","longitud":126.8973129,"latitude":37.53100283,"admin_id":"teamwemmy@gmail.com","category_main":"행정시설","category_sub":"주민센터","cityName":"서울시","borough":"영등포구","operating_hours":"<운영시간>\n- 월~금 \/ 09:00 ~ 18:00\n- 토,일 및 공휴일 \/ 휴무"}
,{"unique_id":5265834245,"facilityName":"문래동주민센터","address":"서울 영등포구 문래로28길 15","tel":"02-2670-1189","longitud":126.8994856,"latitude":37.51711125,"admin_id":"teamwemmy@gmail.com","category_main":"행정시설","category_sub":"주민센터","cityName":"서울시","borough":"영등포구","operating_hours":"<운영시간>\n- 월~금 \/ 09:00 ~ 18:00\n- 토,일 및 공휴일 \/ 휴무"}
,{"unique_id":4254345665,"facilityName":"도림동주민센터","address":"서울 영등포구 도영로7길 10","tel":"02-2670-1454","longitud":126.8959445,"latitude":37.50943884,"admin_id":"teamwemmy@gmail.com","category_main":"행정시설","category_sub":"주민센터","cityName":"서울시","borough":"영등포구","operating_hours":"<운영시간>\n- 월~금 \/ 09:00 ~ 18:00\n- 토,일 및 공휴일 \/ 휴무"}
,{"unique_id":6024789007,"facilityName":"신길6동주민센터","address":"서울 영등포구 대방천로 167","tel":"02-2670-1458","longitud":126.9097699,"latitude":37.49939049,"admin_id":"teamwemmy@gmail.com","category_main":"행정시설","category_sub":"주민센터","cityName":"서울시","borough":"영등포구","operating_hours":"<운영시간>\n- 월~금 \/ 09:00 ~ 18:00\n- 토,일 및 공휴일 \/ 휴무"}
,{"unique_id":1029115867,"facilityName":"양평2동주민센터","address":"서울 영등포구 선유로47길 30","tel":"02-2670-1233","longitud":126.8940377,"latitude":37.53649965,"admin_id":"teamwemmy@gmail.com","category_main":"행정시설","category_sub":"주민센터","cityName":"서울시","borough":"영등포구","operating_hours":"<운영시간>\n- 월~금 \/ 09:00 ~ 18:00\n- 토,일 및 공휴일 \/ 휴무"}
,{"unique_id":6486055951,"facilityName":"양평1동주민센터","address":"서울 영등포구 영등포로11길 12","tel":"02-2670-1455","longitud":126.8882266,"latitude":37.52364602,"admin_id":"teamwemmy@gmail.com","category_main":"행정시설","category_sub":"주민센터","cityName":"서울시","borough":"영등포구","operating_hours":"<운영시간>\n- 월~금 \/ 09:00 ~ 18:00\n- 토,일 및 공휴일 \/ 휴무"}
,{"unique_id":7178358106,"facilityName":"영등포본동주민센터","address":"서울 영등포구 신길로61길 17","tel":"02-2670-1049","longitud":126.9093523,"latitude":37.51465049,"admin_id":"teamwemmy@gmail.com","category_main":"행정시설","category_sub":"주민센터","cityName":"서울시","borough":"영등포구","operating_hours":"<운영시간>\n- 월~금 \/ 09:00 ~ 18:00\n- 토,일 및 공휴일 \/ 휴무"}
,{"unique_id":5067100911,"facilityName":"당산제1동주민센터","address":"서울 영등포구 양산로23길 11","tel":"02-2670-1452","longitud":126.8973845,"latitude":37.52497339,"admin_id":"teamwemmy@gmail.com","category_main":"행정시설","category_sub":"주민센터","cityName":"서울시","borough":"영등포구","operating_hours":"<운영시간>\n- 월~금 \/ 09:00 ~ 18:00\n- 토,일 및 공휴일 \/ 휴무"}
,{"unique_id":3885424059,"facilityName":"대림1동주민센터","address":"서울 영등포구 디지털로 441","tel":"02-2670-1460","longitud":126.9058337,"latitude":37.49546714,"admin_id":"teamwemmy@gmail.com","category_main":"행정시설","category_sub":"주민센터","cityName":"서울시","borough":"영등포구","operating_hours":"<운영시간>\n- 월~금 \/ 09:00 ~ 18:00\n- 토,일 및 공휴일 \/ 휴무"}
,{"unique_id":6037175194,"facilityName":"대림2동주민센터","address":"서울 영등포구 대림로23길 25","tel":"02-2670-1419","longitud":126.8982563,"latitude":37.49275423,"admin_id":"teamwemmy@gmail.com","category_main":"행정시설","category_sub":"주민센터","cityName":"서울시","borough":"영등포구","operating_hours":"<운영시간>\n- 월~금 \/ 09:00 ~ 18:00\n- 토,일 및 공휴일 \/ 휴무"}
,{"unique_id":5548382119,"facilityName":"신길1동주민센터","address":"서울 영등포구 영등포로84길 24-5","tel":"02-2670-1259","longitud":126.9214137,"latitude":37.51114521,"admin_id":"teamwemmy@gmail.com","category_main":"행정시설","category_sub":"주민센터","cityName":"서울시","borough":"영등포구","operating_hours":"<운영시간>\n- 월~금 \/ 09:00 ~ 18:00\n- 토,일 및 공휴일 \/ 휴무"}
,{"unique_id":4605315445,"facilityName":"여의동주민센터 현장민원실","address":"서울 영등포구 국제금융로 10","tel":"02-2670-1474","longitud":126.9252998,"latitude":37.52497993,"admin_id":"teamwemmy@gmail.com","category_main":"행정시설","category_sub":"주민센터","cityName":"서울시","borough":"영등포구","operating_hours":"<운영시간>\n- 월~금 \/ 09:00 ~ 18:00\n- 토,일 및 공휴일 \/ 휴무"}
,{"unique_id":1083086094,"facilityName":"관악구청","address":"서울 관악구 관악로 145","tel":"02-879-5000","longitud":126.9515212,"latitude":37.47825663,"admin_id":"teamwemmy@gmail.com","category_main":"행정시설","category_sub":"구청","cityName":"서울시","borough":"관악구","operating_hours":"<운영시간>\n- 월~금 \/ 09:00 ~ 18:00\n- 토,일 및 공휴일 \/ 휴무"}
,{"unique_id":6561671212,"facilityName":"신대방1동주민센터","address":"서울 동작구 신대방길 72","tel":"02-832-6521","longitud":126.9100482,"latitude":37.48894713,"admin_id":"teamwemmy@gmail.com","category_main":"행정시설","category_sub":"주민센터","cityName":"서울시","borough":"동작구","operating_hours":"<운영시간>\n- 월~금 \/ 09:00 ~ 18:00\n- 토,일 및 공휴일 \/ 휴무"}
